district,name,cuisine,amenity,lat,lon
Quan 1,Phở Số 1 Hà Nội,unknown,fast_food,10.7848583,106.700098
Quan 1,Cà Phê Acoustic,unknown,cafe,10.7811643,106.6898451
Quan 1,Cà Phê Sỏi Đá,unknown,cafe,10.7809198,106.689929
Quan 1,Lotteria,burger,fast_food,10.780071,106.7039377
Quan 1,KFC,fried_chicken,fast_food,10.7669666,106.6962301
Quan 1,KFC,fried_chicken,fast_food,10.780868,106.6982351
Quan 1,Lotteria,burger,fast_food,10.7717072,106.687498
Quan 1,Lotteria,burger,fast_food,10.7806494,106.6984325
Quan 1,Lotteria,burger,fast_food,10.7815168,106.6926088
Quan 1,KFC,fried_chicken,fast_food,10.7702226,106.6938718
Quan 1,Lotteria,burger,fast_food,10.7917715,106.6913899
Quan 1,Lotteria,burger,fast_food,10.7676493,106.6953831
Quan 1,Nhà Hàng BBQ Chicken,unknown,restaurant,10.768208,106.6841501
Quan 1,Lotteria,burger,fast_food,10.7863467,106.7016034
Quan 1,Jollibee,burger,fast_food,10.7699629,106.6821277
Quan 1,Nhà Hàng Au Tresor,unknown,restaurant,10.772698,106.7048299
Quan 1,Lotteria,burger,fast_food,10.7772651,106.7022543
Quan 1,Cửa Hàng Đồ Ăn Nhanh G-Bread,unknown,fast_food,10.7616574,106.6896218
Quan 1,Nhà Hàng Bờ Sông,unknown,restaurant,10.789502,106.711158
Quan 1,Nhà Hàng Riverside Saigon,unknown,restaurant,10.7728736,106.7062835
Quan 1,Nhà Hàng Hai Lúa Sài Gòn,unknown,restaurant,10.7807008,106.7067111
Quan 1,Cà Phê Vườn Kiểng,unknown,cafe,10.7757808,106.7071741
Quan 1,Cà Phê Spotlight,regional,cafe,10.7645525,106.7036887
Quan 1,Cà Phê Màu Hoa Anh Đào,unknown,cafe,10.7814169,106.7061129
Quan 1,The Coffee House,coffee_shop;vietnamese,cafe,10.7809412,106.7064002
Quan 1,Cà Phê Trùng 3T,coffee_shop,cafe,10.7805044,106.7072351
Quan 1,Thức Ăn Dinh Dưỡng Cây Thị,rice,fast_food,10.7638808,106.7048454
Quan 1,Nhà Hàng Buffet Vasta,burger,cafe,10.7820596,106.7057171
Quan 1,Nhà Hàng Wrap&Roll,unknown,restaurant,10.7732882,106.7040253
Quan 1,Trung Nguyên Coffee,coffee_shop;vietnamese,cafe,10.7921354,106.7128519
Quan 1,Nhà Hàng Crazy Buffalo,unknown,restaurant,10.767375,106.6941425
Quan 1,Nhà Hàng Pizza Fixme,unknown,restaurant,10.7680337,106.6938158
Quan 1,Cà Phê Amenity,unknown,cafe,10.7682761,106.6936656
Quan 1,Nhà Hàng Đồ Ăn Việt Nam Aroma,vietnamese,restaurant,10.7684684,106.6938884
Quan 1,Cà Phê Hog's Breath,australian,cafe,10.7718499,106.7048379
Quan 1,Bánh Canh Hoàng Ty,regional,restaurant,10.7917311,106.6915979
Quan 1,Cà Phê Napoli,unknown,cafe,10.7732622,106.6938064
Quan 1,Cafe Thứ 7,unknown,cafe,10.7853912,106.6966905
Quan 1,Cà Phê Terrace,unknown,cafe,10.7737673,106.7011077
Quan 1,Cà Phê Au Parc,mediterranean,cafe,10.7787503,106.6981182
Quan 1,Cà Phê The Refinery,unknown,cafe,10.7782301,106.7037621
Quan 1,Nhà Hàng Vietnamese Kitchen,unknown,restaurant,10.7666137,106.6922676
Quan 1,Nhà Hàng Jaspas,unknown,restaurant,10.778168,106.7037041
Quan 1,The Coffee House,coffee_shop;vietnamese,cafe,10.7850269,106.7026662
Quan 1,Cà Phê Đá,coffee_shop,cafe,10.7805631,106.6975344
Quan 1,Cà Phê 4A,unknown,cafe,10.781379,106.697592
Quan 1,Cửa Hàng Fresh Donuts,sandwich,fast_food,10.7827014,106.6980129
Quan 1,Nhà Hàng Shri Lounge,international,restaurant,10.7826304,106.6972822
Quan 1,Hội Quán Thanh Niên,coffee_shop,cafe,10.7819478,106.6979915
Quan 1,Cà Phê Ciao,vietnamese;international;coffee_shop,cafe,10.7751001,106.7029693
Quan 1,Nhà Hàng Ấn Độ Curry Rice,indian,restaurant,10.7762829,106.7042247
Quan 1,Nhà Hàng Halal Sai Gon,asian,restaurant,10.7760297,106.7047293
Quan 1,Nhà Hàng Cung Đình Rex,vietnamese,restaurant,10.7754972,106.7007063
Quan 1,Nhà Hàng Tiệc Cưới 108 Nguyễn Du,vietnamese,restaurant,10.7754764,106.6956779
Quan 1,Cà Phê 30-4,unknown,cafe,10.7761438,106.6946963
Quan 1,Nhà Hàng Alibaba,international;grill;coffee_shop;persian;asian;steak_house;beef_bowl;russian;donut;pancake;fish_and_chips;chicken;vietnamese;oriental;breakfast;savory_pancakes;tea;seafood;friture;chinese;kebab;barbecue,restaurant,10.7743953,106.7040996
Quan 1,Highlands Coffee,coffee_shop;vietnamese,cafe,10.7769684,106.70344
Quan 1,Cà Phê Smart,coffee_shop,cafe,10.7876581,106.6999764
Quan 1,Nhà Hàng Hải Cảng,chinese,restaurant,10.7662887,106.7077614
Quan 1,Nhà Hàng Honeymoon,unknown,restaurant,10.7602951,106.6991702
Quan 1,Cửa Hàng Xôi Chè Bùi Thị Xuân,unknown,restaurant,10.7675882,106.6863944
Quan 1,Topping Beef,unknown,restaurant,10.7797991,106.6949139
Quan 1,The Coffee Bean & Tea Leaf,coffee_shop,cafe,10.7805315,106.6956539
Quan 1,Cà Phê Calibre,coffee_shop,cafe,10.7743763,106.7037363
Quan 1,Trung Nguyên Coffee,coffee_shop;vietnamese,cafe,10.7817145,106.6982688
Quan 1,Quán Cà Phê Papa,coffee_shop,cafe,10.7833122,106.6956127
Quan 1,Cà Phê Gió Bấc,coffee_shop,cafe,10.783145,106.6955418
Quan 1,Highlands Coffee,coffee_shop;vietnamese,cafe,10.7686142,106.6934398
Quan 1,Nhà Hàng Bornga,korean,restaurant,10.7788067,106.7020073
Quan 1,The Coffee Bean & Tea Leaf,coffee_shop,cafe,10.7680657,106.695136
Quan 1,The Coffee Bean & Tea Leaf;235 Đồng Khởi,coffee_shop,cafe,10.7786273,106.6999908
Quan 1,Cà Phê Cuộc Sống Dễ Dàng,coffee_shop,cafe,10.7826261,106.6965122
Quan 1,Quán Phở 2000,vietnamese,restaurant,10.7718157,106.697747
Quan 1,Trung Nguyên Coffee,coffee_shop;vietnamese,cafe,10.772661,106.6954006
Quan 1,Highlands Coffee,coffee_shop;vietnamese,cafe,10.7841289,106.7033179
Quan 1,Bánh Mì The One,unknown,fast_food,10.779859,106.700914
Quan 1,Nhà Hàng Lion Beer,international,restaurant,10.776619,106.7039069
Quan 1,Cà Phê Central Nguyễn Huệ,coffee_shop,cafe,10.7738692,106.7034139
Quan 1,Highlands Coffee,coffee_shop;vietnamese,cafe,10.7736729,106.7007717
Quan 1,Cà Phê Soho,coffee_shop,cafe,10.7725032,106.7019571
Quan 1,Nhà Hàng Ngon,vietnamese,restaurant,10.7773464,106.6996325
Quan 1,Nhà Hàng Rơm BBQ,american,restaurant,10.7736789,106.6992615
Quan 1,Phở 24,vietnamese;noodle,restaurant,10.7718553,106.6975823
Quan 1,Nhà Hàng Nướng Barbecue Garden,unknown,restaurant,10.7748184,106.6992492
Quan 1,Highlands Coffee,coffee_shop;vietnamese,cafe,10.7809781,106.6980644
Quan 1,Phở Bắc Hải,vietnamese,restaurant,10.7838752,106.6992161
Quan 1,Nhà Hàng Pháp Hoa,vietnamese,restaurant,10.767809,106.688677
Quan 1,Bún Bò Huế Gia Hội,vietnamese,restaurant,10.78415,106.6975046
Quan 1,Nhà Hàng Hồ Tây,vietnamese,restaurant,10.784324,106.697355
Quan 1,Cafe Thềm Xưa,coffee_shop,cafe,10.759976,106.685927
Quan 1,Nhà Hàng Hoằng Long,unknown,restaurant,10.7768249,106.703813
Quan 1,Nhà Hàng Neighborhood Meal,vietnamese,restaurant,10.7805082,106.7057315
Quan 1,Unknown,unknown,fast_food,10.7815042,106.7053586
Quan 1,5KU Station,grill,restaurant,10.7794464,106.7042294
Quan 1,Nhà Hàng El Gaucho,argentinian,restaurant,10.7780321,106.7036328
Quan 1,Nhà Hàng Nhật Annz,japanese,restaurant,10.7781923,106.7039909
Quan 1,Nhà Hàng Beirut,lebanese,restaurant,10.7780733,106.7039174
Quan 1,Cửa Hàng Pizza 4P's,pizza,restaurant,10.7818475,106.705108
Quan 1,Starbucks,coffee_shop,cafe,10.7765217,106.7049252
Quan 1,Central Parc Bánh Mì,unknown,cafe,10.7787487,106.6985432
Quan 1,Starbucks,coffee_shop,cafe,10.7788646,106.6982455
Quan 1,Nhà Hàng Blanchy Street,fusion,restaurant,10.7780081,106.7038501
Quan 1,Nhà Hàng Hoa Túc,unknown,restaurant,10.7783472,106.7038891
Quan 1,Nhà Hàng Le Bouchon De Saïgon,french,restaurant,10.7803707,106.7035032
Quan 1,The Coffee Bean & Tea Leaf,coffee_shop,cafe,10.7799219,106.7039841
Quan 1,Nhà Hàng Khói Thơm,mexican,restaurant,10.7806216,106.6901081
Quan 1,Domino's,pizza,fast_food,10.7926127,106.6959584
Quan 1,Cà Phê New Day,unknown,cafe,10.7739206,106.6970944
Quan 1,Nhà Hàng Ciao Bella,italian_pizza,restaurant,10.7762605,106.7049669
Quan 1,Quán Ăn Pháp Ti Ti,unknown,restaurant,10.7956297,106.6949528
Quan 1,Nhà Hàng Zanzbar,unknown,restaurant,10.7759751,106.7046722
Quan 1,Nhà Hàng Skewers,mediterranean,restaurant,10.7790115,106.7047525
Quan 1,Cà Phê La Dolce Vita,unknown,cafe,10.7770275,106.7022407
Quan 1,Nhà Hàng Som Tum Thai,japanese,restaurant,10.7792532,106.7038786
Quan 1,Nhà Hàng Namo,italian,restaurant,10.777874,106.7037686
Quan 1,Nhà Hàng Le Bourgeois,unknown,restaurant,10.7768577,106.7024065
Quan 1,Trung Nguyên Coffee,coffee_shop;vietnamese,cafe,10.7797937,106.7041252
Quan 1,The Coffee Bean & Tea Leaf,coffee_shop,cafe,10.7717336,106.6975733
Quan 1,Nhà Hàng Hương Đồng 4,unknown,restaurant,10.7942099,106.6963509
Quan 1,KFC,fried_chicken,fast_food,10.757665,106.6998702
Quan 1,Nhà Hàng Tokyo Deli,japanese,restaurant,10.7795329,106.6865534
Quan 1,Cà Phê Princess And The Pea,unknown,cafe,10.7749587,106.7005062
Quan 1,Cà Phê Mocking Bird,unknown,cafe,10.7694751,106.7044829
Quan 1,Lẩu Dê Kỳ Đồng,vietnamese,restaurant,10.7917958,106.6972343
Quan 1,Nhà Hàng Lemongrass,vietnamese,restaurant,10.7754055,106.7033338
Quan 1,Ốc Tý,unknown,restaurant,10.7868712,106.7071606
Quan 1,Cà Phê Tutti Frutti Frozen Yogurt,unknown,cafe,10.7719303,106.6976976
Quan 1,KFC,fried_chicken,fast_food,10.7765304,106.6837229
Quan 1,Nhà Hàng Pháp Hidden,french,restaurant,10.7674081,106.6930818
Quan 1,Cà Phê BB Corner,unknown,cafe,10.7728073,106.6952588
Quan 1,Starbucks,coffee_shop,cafe,10.7756464,106.7005642
Quan 1,Trung Nguyên Coffee,coffee_shop;vietnamese,cafe,10.7753501,106.7040924
Quan 1,Starbucks,coffee_shop,cafe,10.7767726,106.6983083
Quan 1,Popeyes,chicken,fast_food,10.7927545,106.6993341
Quan 1,Subway,sandwich,fast_food,10.780084,106.70412
Quan 1,Cà Phê Anh Phán,juice,cafe,10.7690065,106.6992927
Quan 1,Nhà Hàng Bon,unknown,restaurant,10.768989,106.699256
Quan 1,Nhà Hàng Dragon Steak,steak_house,restaurant,10.773364,106.702516
Quan 1,Cà Phê Hello Boba,coffee_shop,cafe,10.769426,106.697944
Quan 1,Pizza Hut,pizza,restaurant,10.776985,106.690347
Quan 1,Nhà Hàng Hoàng Ty,unknown,restaurant,10.776477,106.689956
Quan 1,The Coffee Bean & Tea Leaf,coffee_shop,cafe,10.778667,106.6980739
Quan 1,Trung Nguyên Coffee,coffee_shop;vietnamese,cafe,10.783733,106.694489
Quan 1,Cà Phê Passio,coffee_shop,cafe,10.779941,106.701006
Quan 1,Cà Phê Phúc Long,unknown,cafe,10.7724413,106.6988757
Quan 1,Ốc Tao Đàn,unknown,restaurant,10.77734,106.692708
Quan 1,Cà Phê Press,coffee_shop,cafe,10.779376,106.6960124
Quan 1,Cà Phê Eleven,unknown,cafe,10.7716401,106.6951331
Quan 1,Cửa Hàng Burger King,burger,fast_food,10.760002,106.698807
Quan 1,Cà Phê Thuỷ Mộc,coffee_shop,cafe,10.777546,106.682577
Quan 1,Highlands Coffee,coffee_shop;vietnamese,cafe,10.784071,106.699901
Quan 1,Cà Phê Mylife,coffee_shop,cafe,10.767481,106.688215
Quan 1,Cà Phê Soybean,unknown,cafe,10.767428,106.68829
Quan 1,Unknown,unknown,restaurant,10.784545,106.699468
Quan 1,Nhà Hàng Soya Pudding,unknown,restaurant,10.767854,106.686372
Quan 1,Cà Phê Regina,unknown,cafe,10.778345,106.699128
Quan 1,Nhà Hàng Goldfish,vietnamese,restaurant,10.7746812,106.7042541
Quan 1,Unknown,unknown,restaurant,10.7895287,106.703993
Quan 1,KFC,fried_chicken,fast_food,10.792697,106.6972888
Quan 1,Quán Ăn DimSum,chinese,restaurant,10.7896434,106.7041204
Quan 1,Quán Cơm Dân Chủ,regional,restaurant,10.7781609,106.6812448
Quan 1,KFC,fried_chicken,fast_food,10.7641045,106.6871413
Quan 1,Hana Buffet,unknown,restaurant,10.7835575,106.6909915
Quan 1,Cà Phê Mylife,unknown,cafe,10.7769687,106.6980029
Quan 1,Cà Phê Sành Điệu,unknown,cafe,10.7772892,106.6830134
Quan 1,Phở Hùng,unknown,restaurant,10.7857396,106.6949916
Quan 1,Highlands Coffee,coffee_shop;vietnamese,cafe,10.7878843,106.6917863
Quan 1,Cơm Tấm Cali,unknown,restaurant,10.7882189,106.6916737
Quan 1,Nhà Hàng Món Huế,unknown,restaurant,10.7890805,106.6905927
Quan 1,Pizza Hut,pizza,restaurant,10.7893229,106.6899973
Quan 1,Trung Nguyên Coffee,coffee_shop;vietnamese,cafe,10.7897734,106.6893777
Quan 1,Popeyes,chicken,fast_food,10.7901054,106.6893026
Quan 1,Unknown,ice_cream,cafe,10.7901897,106.6889271
Quan 1,Cà Phê Sông Hương,unknown,cafe,10.7961513,106.6913175
Quan 1,Cà Phê Trần,coffee_shop,cafe,10.7647704,106.7015087
Quan 1,Nhà Hàng Portofino,unknown,restaurant,10.776223,106.7048961
Quan 1,Nhà Hàng Xu,unknown,restaurant,10.7769624,106.7044959
Quan 1,Nhà Hàng El Gaucho,argentinian,restaurant,10.7777314,106.7045057
Quan 1,Phở 24,vietnamese;noodle,restaurant,10.7745474,106.7046273
Quan 1,Lotteria,burger,fast_food,10.7639214,106.7046195
Quan 1,Nhà Hàng Hoa Tulip 1,unknown,restaurant,10.7764352,106.6846545
Quan 1,Nhà Hàng Golden Elephant,thai,restaurant,10.7769534,106.704788
Quan 1,Cà Phê Yes,regional,cafe,10.792289,106.688214
Quan 1,Nhà Hàng StormP Saigon,danish,restaurant,10.7776676,106.7044489
Quan 1,The Coffee Bean & Tea Leaf,coffee_shop,cafe,10.7842255,106.7036949
Quan 1,Cửa Hàng Le Jardin,french,fast_food,10.7801823,106.7034301
Quan 1,Nhà Hàng Ẩm Thực Việt Nam,vietnamese,restaurant,10.766989,106.693433
Quan 1,Nhà Hàng Pundjab,indian,restaurant,10.7680371,106.6941696
Quan 1,Nhà Hàng Koto,vietnamese,restaurant,10.7830786,106.6969715
Quan 1,Bánh Xèo 46A,vietnamese,restaurant,10.7896047,106.6912995
Quan 1,MIT rooftop bistro,unknown,restaurant,10.7736594,106.7054779
Quan 1,Nhà Hàng Pháp La Fourchette,french,restaurant,10.7738554,106.7056571
Quan 1,Nhà Hàng Temple Club,vietnamese,restaurant,10.7732582,106.7017621
Quan 1,Nhà Hàn 3T Quán Nướng,barbecue,restaurant,10.7732808,106.7017957
Quan 1,Nhà Hàng Hương Lài,vietnamese,restaurant,10.77734,106.700248
Quan 1,Bánh Khọt Cô Ba Vũng Tàu,"Banh_xeo,_banh_khot",restaurant,10.7705632,106.6815986
Quan 1,Nhà Hàng Vỹ Dạ,unknown,restaurant,10.7749047,106.6980099
Quan 1,Bánh Cuốn Hải Nam,banh_cuon_(breakfast/lunch),restaurant,10.7687389,106.6834665
Quan 1,Quán Chả Giò Cua Biển 94,vietnamese,restaurant,10.7903516,106.6976096
Quan 1,Bún Nước Chị Ba,Vietnamese_vermicelli_grilled_pork,restaurant,10.7611535,106.6927466
Quan 1,Nhà Hàng Prem Bistro & Cafe,unknown,restaurant,10.7752831,106.6894658
Quan 1,Nhà Hàng The Organic,unknown,restaurant,10.7916099,106.693465
Quan 1,Unknown,unknown,restaurant,10.7906521,106.6983394
Quan 1,Nhà Hàng Chay Saigon 3,unknown,restaurant,10.7763157,106.6866707
Quan 1,Nhà Hàng Basilico,italian,restaurant,10.7814055,106.7011626
Quan 1,Nhà Hàng The Sushi Bar 4,sushi,restaurant,10.775935,106.6878807
Quan 1,Nhà Hàng Thanh Thìn,unknown,restaurant,10.7676305,106.7000487
Quan 1,Nhà Hàng Chay Hương Sen,unknown,restaurant,10.7691582,106.6912982
Quan 1,Cà Phê Bike,unknown,cafe,10.7801585,106.6796374
Quan 1,Nhà Hàng D'Green Salad Food Drink,unknown,restaurant,10.769733,106.693061
Quan 1,Nhà Hàng Chabad Vietnam,schnitzel;_falafel,restaurant,10.7892923,106.7014657
Quan 1,Cà Phê Zoom,coffee_shop,cafe,10.7669277,106.6941435
Quan 1,COFFEE BEAN & TEA LEAFS,unknown,cafe,10.7668888,106.6941819
Quan 1,Pizza Hut,pizza,restaurant,10.7807736,106.6982429
Quan 1,Pizza Hut,pizza,restaurant,10.7770084,106.6811613
Quan 1,Pizza Hut,pizza,restaurant,10.7641929,106.6824701
Quan 1,Pizza Hut,pizza,restaurant,10.7953131,106.7095937
Quan 1,Cà Phê Juicy,unknown,cafe,10.7859961,106.7008788
Quan 1,Cà Phê Passio,unknown,cafe,10.7856401,106.7009163
Quan 1,Cà Phê Stop,unknown,cafe,10.7857002,106.7005878
Quan 1,Nhà Hàng Saigon Green House,unknown,restaurant,10.7724714,106.6958298
Quan 1,Cà Phê MyLife,unknown,cafe,10.76423,106.6923359
Quan 1,Cà Phê Nguyễn Hoàng,unknown,cafe,10.7716515,106.695367
Quan 1,Nhà Hàng Asian Kitchen,vietnamese;local;regional,restaurant,10.7683337,106.6940202
Quan 1,Nhà Hàng Sando's,vietnamese;sandwich;regional;local,restaurant,10.7681633,106.6944511
Quan 1,Unknown,unknown,cafe,10.7762035,106.6921817
Quan 1,Starbucks,coffee_shop,cafe,10.7675184,106.6938961
Quan 1,Nhà Hàng Saigon Garden,unknown,restaurant,10.7755232,106.702529
Quan 1,Nhà Hàng Lamenda,unknown,restaurant,10.7740352,106.6970177
Quan 1,Tous les Jours,unknown,cafe,10.7740844,106.7005221
Quan 1,Nhà Hàng Propaganda Saigon Bistro,sandwich,restaurant,10.778708,106.6980884
Quan 1,Cà Phê Tiny's,unknown,cafe,10.7682783,106.6944886
Quan 1,Nhà Hàng Hummus And Grill Lebanese,middle_eastern,restaurant,10.7684387,106.6942563
Quan 1,Nhà Hàng Cycloresto,unknown,restaurant,10.7721513,106.6936449
Quan 1,Quán Cơm Đo Đo,unknown,restaurant,10.7698049,106.6867841
Quan 1,The Workshop Coffee,coffee_shop,cafe,10.7734061,106.7055391
Quan 1,Nhà Hàng The Lunch Lady,unknown,restaurant,10.7915811,106.7042222
Quan 1,Nhà Hàng Trung Hoa Saigon 3,chinese,restaurant,10.7746583,106.6886013
Quan 1,Nhà Hàng The Elbow Room,american;pasta,restaurant,10.771263,106.7024191
Quan 1,Nhà Hàng L'usine,unknown,restaurant,10.7731015,106.6994604
Quan 1,Nhà Hàng My Bahn Mi,unknown,restaurant,10.7794971,106.7005803
Quan 1,Loving Hut,international,restaurant,10.7894669,106.6953972
Quan 1,Chả Cá Lã Vọng,unknown,restaurant,10.773666,106.7025664
Quan 1,Cà Phê La Fenetre Soleil,unknown,cafe,10.7773999,106.7003456
Quan 1,Nhà Hàng Cà Phê Hồ Chí Minh,unknown,restaurant,10.7696927,106.6977556
Quan 1,Cà Phê Bookworm,unknown,cafe,10.7660753,106.6910914
Quan 1,The Coffee House;Đá Muối Himalaya DamiLama,coffee_shop;vietnamese,cafe,10.796404,106.690969
Quan 1,The Coffee House,coffee_shop;vietnamese,cafe,10.7932368,106.6959784
Quan 1,The Coffee House,coffee_shop;vietnamese,cafe,10.778179,106.681205
Quan 1,The Coffee House,coffee_shop;vietnamese,cafe,10.7855259,106.6819458
Quan 1,Trà sữa TenRen,unknown,cafe,10.7831114,106.6962575
Quan 1,Nhà Hàng - Cafe Bookworm's,unknown,restaurant,10.7663169,106.6913488
Quan 1,The Coffee House,coffee_shop;vietnamese,cafe,10.7683299,106.6988431
Quan 1,Unknown,unknown,cafe,10.773525,106.70642
Quan 1,Carl's Jr.,burger,fast_food,10.7787824,106.6996434
Quan 1,Nhà Hàng Zìn Ký,unknown,restaurant,10.7692725,106.6904171
Quan 1,Chuck's Burgers,burger;american,fast_food,10.7751229,106.7006493
Quan 1,Nhà Hàng Nam Phạm,unknown,restaurant,10.778681,106.6921566
Quan 1,Nhà Hàng Cà Phê Fly Cupcake Garden,unknown,restaurant,10.782195,106.6878302
Quan 1,Unknown,unknown,cafe,10.7687033,106.6936021
Quan 1,Nhà Hàng Red House,vietnamese,restaurant,10.7727251,106.6791334
Quan 1,Sa Đéc Quán,vietnamese,restaurant,10.7820043,106.6932163
Quan 1,Nhà Hàng Chay Phi Nhung,vietnamese,restaurant,10.7927744,106.6881528
Quan 1,Nhà Hàng Nướng Chilli,unknown,restaurant,10.7607921,106.7045826
Quan 1,Cà Phê Thức,unknown,cafe,10.7798626,106.6924403
Quan 1,Cà Phê Vừng Ơi,unknown,cafe,10.7815859,106.691294
Quan 1,Cửa Hàng Bún Bò Viên Vườn Chuối,unknown,restaurant,10.7741459,106.6829523
Quan 1,Unknown,unknown,cafe,10.7743456,106.7039054
Quan 1,Unknown,korean,restaurant,10.7827928,106.6893759
Quan 1,Highlands Coffee,coffee_shop;vietnamese,cafe,10.7881332,106.6996603
Quan 1,Cơm Gà Tam Kỳ Hồng Nga,chicken,restaurant,10.7685706,106.6871539
Quan 1,Cà Phê Nubei,unknown,cafe,10.765935,106.689767
Quan 1,Highlands Coffee,coffee_shop;vietnamese,cafe,10.7796762,106.6924435
Quan 1,Cộng Cà Phê,coffee_shop;vietnamese,cafe,10.7666057,106.69208
Quan 1,Quán Ăn Dim Sum House,chinese;asian,restaurant,10.7688832,106.6907172
Quan 1,Unknown,japanese;ramen,restaurant,10.7820109,106.7051946
Quan 1,Unknown,vietnamese,cafe,10.7919269,106.6984474
Quan 1,Taj Mahal,curry;indian,restaurant,10.7680805,106.6925388
Quan 1,Nhà Hàng Ý Mumtaz,indian,restaurant,10.7659975,106.6909905
Quan 1,Highlands Coffee,coffee_shop;vietnamese,cafe,10.7854421,106.6986902
Quan 1,Unknown,unknown,restaurant,10.7907291,106.709854
Quan 1,Cà Phê KooKu,unknown,cafe,10.783391,106.689237
Quan 1,Unknown,unknown,cafe,10.7750614,106.6974194
Quan 1,Unknown,bagel;sandwich,restaurant,10.7656371,106.6899653
Quan 1,Viet Village,unknown,restaurant,10.7886408,106.6992852
Quan 1,Unknown,unknown,restaurant,10.7744515,106.6900932
Quan 1,Unknown,chinese;japanese;thai;vietnamese,restaurant,10.773464,106.703829
Quan 1,Unknown,unknown,restaurant,10.7769769,106.6881198
Quan 1,Nhà Hàng Soul Burger,burger,restaurant,10.7724373,106.6988409
Quan 1,Chay Việt An,vietnamese,restaurant,10.7927434,106.6897471
Quan 1,Auguda Coffee,unknown,cafe,10.789177,106.7002172
Quan 1,Unknown,unknown,cafe,10.787386,106.6827402
Quan 1,Unknown,unknown,cafe,10.7862643,106.6954336
Quan 1,Unknown,unknown,cafe,10.7653465,106.7021995
Quan 1,Unknown,unknown,cafe,10.7880068,106.6918928
Quan 1,Unknown,unknown,restaurant,10.7715828,106.7022705
Quan 1,Cà Phê Chế,unknown,cafe,10.762242,106.7015048
Quan 1,Cà Phê Bingsu World,ice_cream,cafe,10.7758815,106.689603
Quan 1,Nhà Hàng Chay Hum,vietnamese,restaurant,10.7786518,106.6920846
Quan 1,Unknown,unknown,restaurant,10.7764625,106.6875429
Quan 1,Nhà Hàng Làng Việt,unknown,restaurant,10.7807511,106.6938626
Quan 1,Unknown,unknown,restaurant,10.7822974,106.6961228
Quan 1,Hủ Tiếu Sườn Né Đào,unknown,restaurant,10.7718998,106.6921906
Quan 1,Nhà Hàng Chaba Thai,thai,restaurant,10.7734967,106.6973611
Quan 1,Highlands Coffee,coffee_shop;vietnamese,cafe,10.7706252,106.7031762
Quan 1,Unknown,unknown,fast_food,10.7721197,106.7040298
Quan 1,Trà Sữa R&B,unknown,cafe,10.7721465,106.7040893
Quan 1,Nhà Hàng Spice India,indian,restaurant,10.7675973,106.694792
Quan 1,Cà Phê Bazzan,unknown,cafe,10.7670123,106.6941169
Quan 1,Nhà Hàng TNT BBQ,american;barbecue,restaurant,10.7722284,106.6942795
Quan 1,Unknown,unknown,restaurant,10.7751496,106.7005091
Quan 1,Nhà Hàng Don Chicken,unknown,restaurant,10.7705516,106.7044952
Quan 1,Cà Phê Saigon,unknown,cafe,10.7732497,106.7063052
Quan 1,Cà Phê Milano,unknown,cafe,10.7799029,106.6843953
Quan 1,Unknown,unknown,restaurant,10.7667621,106.6940696
Quan 1,Lẩu Mắm Bà Dú,vietnamese,restaurant,10.7927688,106.6913594
Quan 1,Unknown,vietnamese,restaurant,10.7777416,106.6913624
Quan 1,Unknown,lao,restaurant,10.7918888,106.7049229
Quan 1,Nhà Hàng Đùi Cừu Thuận Tuấn,unknown,restaurant,10.7923047,106.7015974
Quan 1,Quán Nướng Bơ,vietnamese,restaurant,10.7608066,106.7046253
Quan 1,Nhà Hàng Cơm Nhà Homemade Meals,unknown,restaurant,10.7758733,106.7034298
Quan 1,Cà Phê Nest By AIA,unknown,cafe,10.7715546,106.7042965
Quan 1,Nhà Hàng Nam Giao,regional,restaurant,10.7746281,106.6982991
Quan 1,Cà Phê Betta Fish,local,cafe,10.7651367,106.6993512
Quan 1,Amitaba Cafe - Ẩm Thực Chay,vietnamese,restaurant,10.7650602,106.6975009
Quan 1,Cà Phê Royal Tea House,unknown,cafe,10.7813628,106.6970135
Quan 1,Nhà Hàng Tokyo Deli,unknown,restaurant,10.7734735,106.7053749
Quan 1,Mì Quảng Rau Sạch,unknown,restaurant,10.7820698,106.6988275
Quan 1,The Pizza Company,pizza,fast_food,10.7674139,106.6956438
Quan 1,Nhà Hàng Thanh Mai,vietnamese,restaurant,10.7715838,106.6965092
Quan 1,Unknown,unknown,cafe,10.7745646,106.7053421
Quan 1,Unknown,thai,fast_food,10.7831717,106.6964914
Quan 1,Phở Kim,unknown,restaurant,10.7745642,106.6868565
Quan 1,Unknown,unknown,restaurant,10.7732771,106.7053857
Quan 1,Cà Phê 6k,unknown,cafe,10.766888,106.69237
Quan 1,Unknown,malaysian,restaurant,10.7745863,106.6964796
Quan 1,Nhà Hàng Salima Halal,unknown,restaurant,10.7720393,106.6973647
Quan 1,Unknown,unknown,restaurant,10.7783476,106.6917075
Quan 1,Unknown,vietnamese,restaurant,10.7683111,106.6950326
Quan 1,Nhà Hàng Út Cà Mau,vietnamese,restaurant,10.7844093,106.6919069
Quan 1,Nhà Hàng Nhật Phương,american;asian;vietnamese,restaurant,10.7901736,106.6863392
Quan 1,Cà Phê Maison Marou French,cake;french;coffee_shop,cafe,10.7695926,106.6978674
Quan 1,Nhà Hàng Ly Clu,western;vietnamese;fusion,restaurant,10.7806711,106.6933297
Quan 1,Nhà Hàng Non La Guys,asian;mexican;korean;local,restaurant,10.7682032,106.694152
Quan 1,Unknown,american,restaurant,10.7723192,106.6942003
Quan 1,Bánh Gạo Hàn Quốc & Đồ Uống,unknown,fast_food,10.7636383,106.695587
Quan 1,Unknown,unknown,restaurant,10.7654481,106.6899389
Quan 1,Nhà Hàng Royal Saigon,vietnamese;buncha;pho;healthyfood,restaurant,10.7658624,106.6909327
Quan 1,Unknown,unknown,restaurant,10.7731074,106.7033904
Quan 1,Unknown,unknown,restaurant,10.7663719,106.6917488
Quan 1,Unknown,burger,restaurant,10.7763809,106.7050246
Quan 1,Unknown,vietnamese,restaurant,10.7744459,106.7006746
Quan 1,Cà Phê Yamamoto Mattcha,japanese;ice_cream,cafe,10.7663744,106.6937208
Quan 1,Unknown,unknown,restaurant,10.7889354,106.7156925
Quan 1,Unknown,unknown,restaurant,10.7822881,106.7054695
Quan 1,Unknown,unknown,restaurant,10.7624446,106.7016365
Quan 1,Cà Phê [a],tea;vietnamese;coffee_shop,cafe,10.790421,106.69669
Quan 1,Unknown,vietnamese,restaurant,10.7685883,106.6942085
Quan 1,Unknown,unknown,cafe,10.7702399,106.70391
Quan 1,Unknown,vietnamese,restaurant,10.7814816,106.7059109
Quan 1,Cà Phê 27,unknown,cafe,10.775562,106.6886975
Quan 1,Sumo BBQ,unknown,restaurant,10.7706899,106.6812507
Quan 1,Nhà Hàng Saigon Night,vietnamese,restaurant,10.7753264,106.6975453
Quan 1,Cà Phê Cafio,unknown,cafe,10.7684996,106.6968797
Quan 1,Nhà Hàng Busan,korean,restaurant,10.7942779,106.6958784
Quan 1,Cà Phê Yên,unknown,cafe,10.7757455,106.6862278
Quan 1,Tiệm Hủ Tiếu Nhân Quán,unknown,restaurant,10.7586548,106.7008465
Quan 1,Cà Phê Fanny,crepe;ice_cream;coffee_shop,cafe,10.769282,106.6962621
Quan 1,Unknown,vietnamese;local;western;mexican,restaurant,10.7671859,106.6935902
Quan 1,Cục Gạch Quán,unknown,restaurant,10.7929997,106.6889296
Quan 1,Quán Ăn Gia Đình,unknown,restaurant,10.7783736,106.6865896
Quan 1,Nhà Hàng Veggi,vietnamese,restaurant,10.7682015,106.69456
Quan 1,Cafe Mai,unknown,cafe,10.7653372,106.6952758
Quan 1,Unknown,unknown,cafe,10.7690558,106.6968165
Quan 1,Nhà Hàng Stake House,unknown,restaurant,10.7678723,106.6978604
Quan 1,Cà Phê Milestone,vietnamese,restaurant,10.7639372,106.6929265
Quan 1,Phở Bác Hai,vietnamese,restaurant,10.764493,106.6942283
Quan 1,Unknown,unknown,restaurant,10.7787537,106.6934736
Quan 1,Cửa hàng Pizza Esspy,unknown,restaurant,10.7658354,106.6898055
Quan 1,Unknown,unknown,restaurant,10.7660756,106.6973363
Quan 1,Trà Sữa Bò Mập,bubble_tea,cafe,10.7888074,106.6879075
Quan 1,Nhà Hàng Vietheritage,unknown,restaurant,10.7781095,106.6907907
Quan 1,Nhà Hàng Five Oysters,unknown,restaurant,10.7659253,106.6909232
Quan 1,Cà Phê StoryM,vietnamese;american;tea;coffee_shop,cafe,10.7939098,106.6895222
Quan 1,Unknown,unknown,restaurant,10.776551,106.7061287
Quan 1,Unknown,unknown,cafe,10.7776417,106.6989508
Quan 1,Unknown,unknown,cafe,10.7795226,106.7046835
Quan 1,Nhà Hàng Ấn Độ Natraj,indian,restaurant,10.7712663,106.6898911
Quan 1,Unknown,unknown,cafe,10.7727598,106.7017634
Quan 1,Unknown,vietnamese,fast_food,10.7949869,106.6907958
Quan 1,Cửa Hàng Bánh Mì 37,unknown,fast_food,10.7707164,106.6926468
Quan 1,Unknown,unknown,fast_food,10.7748486,106.683388
Quan 1,Bún riêu Nguyễn Cảnh Chân,unknown,fast_food,10.7580032,106.6888134
Quan 1,Cà Phê Cy Cy,coffee_shop,cafe,10.7869702,106.6922405
Quan 1,Nhà Hàng Việt Chay,vietnamese,restaurant,10.7901879,106.6841344
Quan 1,Cà Phê Teaspoon,tea;coffee_shop;cake,cafe,10.7793691,106.702413
Quan 1,Phở Chay Nhu,vietnamese,restaurant,10.7869978,106.6922059
Quan 1,Unknown,unknown,restaurant,10.7603474,106.6896858
Quan 1,Unknown,unknown,cafe,10.796463,106.7037586
Quan 1,Cà Phê Oto,coffee_shop,cafe,10.7861339,106.6845894
Quan 1,Quán Cà Phê Vừng Ơi Mở Ra,unknown,cafe,10.7808812,106.6901913
Quan 1,Cafe De Nam - C4 Cafe,unknown,cafe,10.778591,106.6862712
Quan 1,Unknown,unknown,cafe,10.7720623,106.7020827
Quan 1,Unknown,unknown,restaurant,10.7683485,106.6986878
Quan 1,Unknown,unknown,restaurant,10.7724623,106.6964838
Quan 1,Cà Phê Người Sài Gòn,unknown,cafe,10.7785399,106.7052813
Quan 1,Unknown,unknown,restaurant,10.7675874,106.6942784
Quan 1,Cà Phê Snob,coffee_shop,cafe,10.7666766,106.6944217
Quan 1,Cà Phê Fugashin,unknown,cafe,10.7788136,106.6925847
Quan 1,Unknown,unknown,restaurant,10.7775468,106.6987987
Quan 1,Unknown,unknown,cafe,10.7724172,106.7037256
Quan 1,Ẩm Thực Chay Chân Nhu II,vietnamese,restaurant,10.7650979,106.6948465
Quan 1,Unknown,unknown,restaurant,10.762579,106.7063092
Quan 1,Unknown,unknown,restaurant,10.7820903,106.6963933
Quan 1,Nhà Hàng The Fish Sauce,unknown,restaurant,10.7811468,106.6994239
Quan 1,Cà Phê Và Board Game,unknown,cafe,10.7672286,106.6964802
Quan 1,Unknown,unknown,cafe,10.7939118,106.7083084
Quan 1,Starbucks,coffee_shop,cafe,10.7710508,106.6939121
Quan 1,Cà Phê Yoyo Acoustic,unknown,cafe,10.777269,106.6899754
Quan 1,Nhà Hàng Song Ngư,unknown,restaurant,10.7726596,106.6896406
Quan 1,Unknown,unknown,restaurant,10.7852193,106.6908895
Quan 1,Phố Nhật Quán,ramen;soba;curry;sushi;asian;japanese;grill;seafood;fish;diner,restaurant,10.7653734,106.6968847
Quan 1,Highlands Coffee,coffee_shop;vietnamese,cafe,10.7882519,106.6852952
Quan 1,Nhà Hàng Food House,unknown,restaurant,10.7851216,106.6888205
Quan 1,Nhà Hàng Thế Giới Hải Sản,unknown,restaurant,10.7857006,106.6904759
Quan 1,Nhà Hàng Rắn Biển 6,unknown,restaurant,10.7839859,106.6922466
Quan 1,Nhà Hàng Bông Súng,vietnamese;asian,restaurant,10.7782363,106.6990416
Quan 1,Cà Phê The Yellow Chair Specialty,ice_cream;tea;cake;friture;coffee_shop,cafe,10.7780582,106.6908927
Quan 1,Phở Cao Vân,vietnamese,restaurant,10.7847219,106.6994425
Quan 1,Unknown,seafood,fast_food,10.7631205,106.6925919
Quan 1,Trà Sữa Bobapop,tea,cafe,10.772827,106.7027679
Quan 1,Phở Hòa Pasteur,beef_bowl;noodle,restaurant,10.7868014,106.689046
Quan 1,Unknown,unknown,restaurant,10.7862027,106.6933041
Quan 1,Cà Phê Snob,unknown,cafe,10.7700226,106.6862092
Quan 1,Phở Quỳnh,vietnamese,restaurant,10.7675083,106.6906241
Quan 1,Nhà Hàng Nippon Izakaya,unknown,restaurant,10.7903239,106.7100816
Quan 1,Cà Phê Vee Ayy,unknown,cafe,10.7598947,106.690293
Quan 1,Unknown,international;vietnamese,restaurant,10.7890435,106.6921881
Quan 1,Cà Phê Ichi Cat,unknown,cafe,10.7912198,106.6891855
Quan 1,Nhà Hàng Urban Basemet - Craft Beer & Kitchen,unknown,restaurant,10.7826757,106.7054387
Quan 1,Nhà Hàng Poki Grill,korean,restaurant,10.7724389,106.7037699
Quan 1,Nhà Hàng Nướng BBQ,unknown,restaurant,10.7782143,106.6807768
Quan 1,Unknown,coffee_shop;tea,cafe,10.7675343,106.6906717
Quan 1,Lương Sơn Quán,unknown,restaurant,10.7796141,106.7026193
Quan 1,Quán Phở Hoa,unknown,restaurant,10.7807274,106.6955072
Quan 1,Unknown,unknown,cafe,10.7617843,106.6913287
Quan 1,Cà Phê Ben House,unknown,cafe,10.7736017,106.7024387
Quan 1,Cà Phê Masstige,unknown,cafe,10.7734285,106.702821
Quan 1,Quán Ăn Cô Tấm,unknown,restaurant,10.7719681,106.7037155
Quan 1,Unknown,unknown,cafe,10.7725293,106.7045671
Quan 1,Cà Phê Donna,mexican,cafe,10.7752521,106.7025547
Quan 1,Nhà Hàng Secret Garden,unknown,restaurant,10.7773229,106.6998263
Quan 1,Đồ Ăn Đường Phố,unknown,fast_food,10.7635671,106.6953841
Quan 1,Nhà Hàng La Fiesta,mexican,restaurant,10.7691924,106.6972256
Quan 1,Unknown,unknown,cafe,10.7671135,106.6893947
Quan 1,Nhà Hàng Ấn Độ Baba's Kitchen,indian,restaurant,10.7666611,106.6921932
Quan 1,Unknown,vietnamese,restaurant,10.7976076,106.7040218
Quan 1,Cà Phê Cao Nguyên,unknown,cafe,10.7647297,106.6906483
Quan 1,Unknown,unknown,restaurant,10.7762673,106.7052528
Quan 1,Unknown,unknown,restaurant,10.7818373,106.6969527
Quan 1,Unknown,unknown,restaurant,10.7727745,106.6955122
Quan 1,Unknown,unknown,restaurant,10.7728536,106.6954489
Quan 1,Unknown,unknown,cafe,10.7862255,106.7009028
Quan 1,Nhà Hàng Phúc Quang Chay,asian;vietnamese,restaurant,10.770467,106.6908778
Quan 1,Unknown,unknown,restaurant,10.769995,106.6936045
Quan 1,Unknown,coffee_shop,cafe,10.7716734,106.6976178
Quan 1,Unknown,unknown,cafe,10.7746511,106.7054606
Quan 1,Unknown,unknown,cafe,10.7694493,106.6998703
Quan 1,"Hum Vegetarian, Lounge & Restaurant",unknown,restaurant,10.7766892,106.7060794
Quan 1,Unknown,unknown,fast_food,10.7866731,106.6891847
Quan 1,Carl's Jr.,burger,fast_food,10.7775563,106.7017777
Quan 1,Sushi World,japanese;sushi,restaurant,10.7733218,106.7021836
Quan 1,Unknown,unknown,restaurant,10.7878678,106.6964429
Quan 1,Cà Phê The Note,unknown,restaurant,10.765998,106.6911254
Quan 1,Cà Phê F.r.i.e.n.d.s,cake;breakfast;grill;coffee_shop,cafe,10.7736665,106.6977599
Quan 1,Nhà Hàng Thái Blah Blah,thai,restaurant,10.7613958,106.6898965
Quan 1,Nước Ép Trái Cây Hurom,korean;ice_cream,cafe,10.7711411,106.7032086
Quan 1,Unknown,unknown,cafe,10.7740732,106.70411
Quan 1,Unknown,unknown,restaurant,10.789148,106.7002985
Quan 1,Nhà Hàng Mandarine,unknown,restaurant,10.7810609,106.7062097
Quan 1,Nhà Hàng Yummy And Cheap!,vietnamese,restaurant,10.7673128,106.6931455
Quan 1,Unknown,vietnamese,restaurant,10.7784211,106.6920661
Quan 1,Things Cafe,unknown,cafe,10.7695208,106.7042939
Quan 1,Unknown,unknown,cafe,10.7749924,106.7005975
Quan 1,Unknown,coffee_shop,cafe,10.7728466,106.6906426
Quan 1,Nhà Hàng Grand Castella,unknown,restaurant,10.7719432,106.7038158
Quan 1,Starbucks,coffee_shop,cafe,10.7765973,106.6836767
Quan 1,Highlands Coffee,coffee_shop;vietnamese,cafe,10.7759148,106.6853912
Quan 1,Unknown,unknown,cafe,10.7703474,106.6942383
Quan 1,Cà Phê Zone69,unknown,cafe,10.7769189,106.6907865
Quan 1,Bánh Mì Hòa Mã,unknown,restaurant,10.7703143,106.6817473
Quan 1,Unknown,unknown,cafe,10.7682417,106.6842178
Quan 1,Nhà Hàng Zone 87,unknown,restaurant,10.7732787,106.7038317
Quan 1,Hanuri,korean,fast_food,10.7756575,106.6872429
Quan 1,Nhà Hàng Cocochin,unknown,restaurant,10.7732989,106.7041107
Quan 1,Unknown,unknown,cafe,10.7740746,106.7041377
Quan 1,Nhà Hàng 3 Lá,unknown,restaurant,10.7625131,106.6898195
Quan 1,Unknown,unknown,cafe,10.7799587,106.6869395
Quan 1,Unknown,burger;sandwich;international;tea;seafood;coffee_shop;asian;pasta;noodles;pancake;pizza;vietnamese,restaurant,10.762326,106.6927709
Quan 1,Unknown,unknown,cafe,10.7623761,106.6939935
Quan 1,Nhà Hàng Lẩu và Nướng Grill Riverside,unknown,restaurant,10.7939164,106.6862258
Quan 1,Unknown,unknown,restaurant,10.7670577,106.690767
Quan 1,Nhà Hàng May And Lounge,unknown,restaurant,10.7711838,106.6896281
Quan 1,Cà Phê Quyên,unknown,cafe,10.7639921,106.7013763
Quan 1,Thuận Tuấn,international,restaurant,10.7854835,106.6813645
Quan 1,Nhà Hàng The Racha Room,unknown,restaurant,10.7759009,106.705138
Quan 1,Nhà Hàng Chay An Lạc,mexican;italian;vietnamese,restaurant,10.7687422,106.6941956
Quan 1,Nhà Hàng Dinh Y,vietnamese,restaurant,10.7663544,106.6888404
Quan 1,Cộng Cà Phê,coffee_shop;vietnamese,cafe,10.7761333,106.7054272
Quan 1,Nhà Hàng Margherita,vietnamese;italian;mexican,restaurant,10.768706,106.6942217
Quan 1,Nhà Hàng Osaka Ramen,japanese;noodles,restaurant,10.7799558,106.7038817
Quan 1,Nhà Hàng Anan,unknown,restaurant,10.7714375,106.7030422
Quan 1,Bún thịt nướng Kiều Bảo,vietnamese,restaurant,10.7651333,106.6948075
Quan 1,Quán Bún Bò Huế Nhung,unknown,restaurant,10.7893915,106.6893498
Quan 1,Saigon Grill Restaurant,unknown,restaurant,10.7769262,106.6993038
Quan 1,Unknown,unknown,restaurant,10.7552712,106.6992819
Quan 1,Highlands Coffee,coffee_shop;vietnamese,cafe,10.7918613,106.691736
Quan 1,Phở Rạch Giá,unknown,restaurant,10.7900563,106.6890386
Quan 1,Cà Phê Lavida,unknown,cafe,10.78946,106.6893883
Quan 1,Cà Phê BoBaPo Taiwan Lattea,unknown,cafe,10.7892856,106.6893096
Quan 1,Unknown,unknown,restaurant,10.7720596,106.702874
Quan 1,Phúc Long,coffee,cafe,10.7680977,106.6951653
Quan 1,The Vintage Emporium,international,cafe,10.7901969,106.6992996
Quan 1,Cà Phê L’amant,unknown,cafe,10.7820278,106.7046166
Quan 1,Cà Phê L’amant,unknown,cafe,10.7730991,106.7052231
Quan 1,Nhà Hàng 48 Bistro,regional;vietnamese,restaurant,10.7714338,106.691936
Quan 1,Nhà Hàng Don Chicken,fast_food,restaurant,10.7720053,106.692075
Quan 1,Nhà Hàng Meat & Meet,barbecue;korean;pizza,restaurant,10.7714463,106.692749
Quan 1,Pasteur Street Brewing Co,unknown,restaurant,10.7739304,106.6973809
Quan 1,Bún bò Huế Chú Hà,vietnamese,restaurant,10.7716935,106.6856775
Quan 1,Hủ Tiếu Xướng Ống Sa Đéc,unknown,restaurant,10.7958109,106.6955234
Quan 1,Nhà Hàng Thai Street & Rooftop Bar,asian;french,restaurant,10.769648,106.6978176
Quan 1,Quán Phở Hùng,vietnamese;asian,restaurant,10.764853,106.6876056
Quan 1,Cà Phê Royaltea,unknown,cafe,10.7711166,106.6933398
Quan 1,Quán Cơm Tấm Thuận Kiều,unknown,restaurant,10.769197,106.689399
Quan 1,Sushi tei,sushi,restaurant,10.7727313,106.6954152
Quan 1,Quán Cà Phê Mellower,coffee_shop,cafe,10.7786352,106.699858
Quan 1,Nhà Hàng Runam Bistro,unknown,restaurant,10.7734472,106.7063334
Quan 1,Unknown,unknown,cafe,10.7641995,106.6872493
Quan 1,Unknown,unknown,restaurant,10.767493,106.6939717
Quan 1,Unknown,tea;cake;coffee_shop,cafe,10.7671561,106.684144
Quan 1,Nhà Hàng Cậu Ba Quân,unknown,restaurant,10.79259,106.70189
Quan 1,Unknown,noodles;breakfast;vietnamese;tea;local;coffee_shop,cafe,10.7647694,106.694968
Quan 1,Phở Bò Phú Gia,unknown,restaurant,10.7863243,106.6845743
Quan 1,Unknown,unknown,restaurant,10.7661931,106.6913324
Quan 1,Unknown,brazilian;barbecue,restaurant,10.7853205,106.6907551
Quan 1,Cà Phê Bệt,coffee_shop,cafe,10.7798794,106.6983062
Quan 1,Unknown,noodles;vietnamese;asian;local,restaurant,10.7739724,106.6972813
Quan 1,Nhà Hàng Nhật Bản Sukiya,unknown,restaurant,10.7843158,106.691878
Quan 1,Unknown,noodles;vietnamese;asian;local,restaurant,10.7739377,106.6972896
Quan 1,Nhà Hàng Zeytun,unknown,restaurant,10.7660019,106.6910157
Quan 1,Unknown,vietnamese,cafe,10.7789519,106.6983631
Quan 1,Unknown,sandwich,restaurant,10.7623508,106.6884733
Quan 1,Bosgaurus Coffee Roasters - Saigon Pearl,coffee_shop,cafe,10.788657,106.7202429
Quan 1,Cà Phê Hạnh,unknown,cafe,10.7636548,106.6897678
Quan 1,Unknown,coffee_shop;coffee;tea_shop;teahouse,cafe,10.7823266,106.7040483
Quan 1,Unknown,unknown,cafe,10.7615493,106.6922042
Quan 1,Unknown,unknown,restaurant,10.779344,106.7035622
Quan 1,Unknown,unknown,restaurant,10.7687959,106.690009
Quan 1,Quán Ăn Gia Khang,vietnamese,restaurant,10.7608622,106.6987086
Quan 1,Cà Phê Thức,unknown,cafe,10.7784297,106.6982091
Quan 1,Unknown,indian,restaurant,10.7659475,106.6910585
Quan 1,Cửa Hàng Pizza,unknown,restaurant,10.7644192,106.6952576
Quan 1,Unknown,unknown,restaurant,10.7684255,106.6940497
Quan 1,Unknown,unknown,fast_food,10.7736838,106.6975146
Quan 1,Nhà Hàng Anh Mập,unknown,restaurant,10.767438,106.6927451
Quan 1,Cà Phê Góc,unknown,cafe,10.7557379,106.700989
Quan 1,Trà Sữa Phúc Long,unknown,cafe,10.7830975,106.6961727
Quan 1,Nhà Hàng Đất Phương Nam,unknown,restaurant,10.7898909,106.6867863
Quan 1,Cà Phê Journeys Sandwich Bistro,vietnamese;american;french,cafe,10.7730051,106.6984535
Quan 1,Unknown,vietnamese;chicken;noodles,restaurant,10.7746369,106.6963796
Quan 1,Nhà Hàng Amazing Bún Thịt Nướng,unknown,restaurant,10.7720975,106.6859856
Quan 1,hey sugar,coffee_shop,cafe,10.7837369,106.6967649
Quan 1,Nhà Hàng Tân Hải Vân,chinese,restaurant,10.769362,106.6902884
Quan 1,Nhà Hàng Gaxeo Chicken,chicken,restaurant,10.7734747,106.7027802
Quan 1,Căn nhà số 7,unknown,cafe,10.7812901,106.6913724
Quan 1,Nhà Hàng Dì Năm Sa Đéc,regional;vietnamese,restaurant,10.7682523,106.6868828
Quan 1,Tiệm Bánh Ngọt Pháp,french,fast_food,10.7724185,106.6964525
Quan 1,Cà Phê Vika,unknown,cafe,10.7778709,106.6810988
Quan 1,Vườn Chay Giác Duyên,unknown,restaurant,10.7927472,106.6912041
Quan 1,Jollibee,burger,fast_food,10.7751044,106.6904933
Quan 1,The Coffee Bean & Tea Leaf,coffee_shop,cafe,10.764564,106.707167
Quan 1,The Coffee Bean & Tea Leaf,coffee_shop,cafe,10.771816,106.704635
Quan 1,The Coffee Bean & Tea Leaf,coffee_shop,cafe,10.773504,106.703873
Quan 1,The Coffee Bean & Tea Leaf,coffee_shop,cafe,10.777277,106.704149
Quan 1,The Coffee Bean & Tea Leaf,coffee_shop,cafe,10.7642634,106.6823171
Quan 1,The Coffee Bean & Tea Leaf,coffee_shop,cafe,10.7743178,106.6884686
Quan 1,Nhà Hàng Mekong Kitchen,vietnamese,restaurant,10.7678212,106.6981206
Quan 1,Quán Miến Kỳ Đồng,unknown,restaurant,10.7830309,106.6821367
Quan 1,The Coffee House,coffee_shop;vietnamese,cafe,10.7691405,106.694594
Quan 1,Nhà Hàng Zeus,unknown,restaurant,10.7660671,106.6896212
Quan 1,Nhà Hàng Đèn Lồng,unknown,restaurant,10.7696483,106.6907927
Quan 1,Unknown,italian_pizza,restaurant,10.7664661,106.6919532
Quan 1,Nhà Hàng Ghém,vietnamese,restaurant,10.7782608,106.6982021
Quan 1,Quán Cơm Tấm Hoàng Minh,vietnamese,restaurant,10.7685143,106.6950275
Quan 1,Nhà Hàng Miyama,japanese,restaurant,10.7736479,106.7009196
Quan 1,Unknown,unknown,cafe,10.7727725,106.6868547
Quan 1,Cộng Cà Phê,coffee_shop;vietnamese,cafe,10.7681879,106.6968711
Quan 1,Unknown,unknown,cafe,10.7727417,106.6866856
Quan 1,Unknown,unknown,cafe,10.7690599,106.6995532
Quan 1,Unknown,unknown,cafe,10.7728179,106.6868299
Quan 1,Nhà Hàng Nướng Phổ Đình,unknown,restaurant,10.772251,106.7004683
Quan 1,Unknown,unknown,restaurant,10.7753278,106.6899055
Quan 1,Unknown,unknown,cafe,10.7899698,106.6990834
Quan 1,Unknown,unknown,fast_food,10.765751,106.6908606
Quan 1,Unknown,unknown,fast_food,10.7770829,106.7035061
Quan 1,Unknown,unknown,restaurant,10.7685058,106.6942413
Quan 1,Unknown,unknown,cafe,10.7782363,106.7008592
Quan 1,Unknown,unknown,cafe,10.7689938,106.7019551
Quan 1,Sushi world,japanese,restaurant,10.7905235,106.7050922
Quan 1,Cà Phê Người Sài Gòn,unknown,cafe,10.7787019,106.7052509
Quan 1,Quán Phở 32,unknown,restaurant,10.7714039,106.6923216
Quan 1,Nhà Hàng Cơm Chay Mani,vietnamese,restaurant,10.7718307,106.6858164
Quan 1,Cộng Cà Phê,coffee_shop;vietnamese,cafe,10.7781683,106.7010262
Quan 1,Nhà Hàng The Organic House,indonesian;tea;vietnamese;coffee_shop,restaurant,10.7875452,106.7027718
Quan 1,Unknown,vietnamese;asian,restaurant,10.7945092,106.6892948
Quan 1,The Coffee House,coffee_shop;vietnamese,cafe,10.7836677,106.6946963
Quan 1,Unknown,vietnamese,fast_food,10.7916309,106.6903135
Quan 1,Unknown,unknown,restaurant,10.7745882,106.7045605
Quan 1,Cơm Chay Ngọc Ý,vietnamese,restaurant,10.7965515,106.7030517
Quan 1,Nhà Hàng Mujo,western,restaurant,10.796233,106.705584
Quan 1,Nhà Hàng Bếp Chay,vietnamese,restaurant,10.7873192,106.690913
Quan 1,Unknown,unknown,cafe,10.7688116,106.694134
Quan 1,Cà Phê Aptea,unknown,cafe,10.7687698,106.6846285
Quan 1,Cà Phê Milano 46,unknown,cafe,10.7911712,106.7116765
Quan 1,Cà Phê Passio,unknown,cafe,10.7892303,106.6962962
Quan 1,Unknown,unknown,cafe,10.7909955,106.7109055
Quan 1,Unknown,unknown,cafe,10.7864498,106.7003281
Quan 1,Unknown,unknown,cafe,10.7882506,106.709355
Quan 1,Gà Quay Kiểu Pháp - Picoti Rotisserie,french;american,fast_food,10.7655072,106.6900295
Quan 1,Cà Phê Egg,unknown,cafe,10.7665192,106.6920803
Quan 1,Cà Phê Nhà Hàng Journeys Sandwich,sandwich,restaurant,10.7701374,106.6923417
Quan 1,Tiệm Mì Vịt Tiềm,unknown,restaurant,10.7662615,106.6963583
Quan 1,Trung Nguyên Coffee,coffee_shop;vietnamese,cafe,10.7903661,106.6973349
Quan 1,Nhà Hàng Pasta Box,unknown,restaurant,10.7910656,106.7054032
Quan 1,Nhà Hàng Thái Hjh Basiroh,thai,restaurant,10.7717555,106.6969429
Quan 1,Unknown,unknown,restaurant,10.7685632,106.6971125
Quan 1,Highlands Coffee,coffee_shop;vietnamese,cafe,10.7692864,106.6980978
Quan 1,Unknown,unknown,cafe,10.766087,106.6895514
Quan 1,Unknown,unknown,cafe,10.769221,106.6902387
Quan 1,Unknown,unknown,restaurant,10.7670119,106.6950321
Quan 1,Nhà Hàng Vegan Kitchen,unknown,restaurant,10.7894442,106.7143059
Quan 1,Quán Bún Bò Gánh,vietnamese;local,restaurant,10.7795156,106.6929136
Quan 1,Quán Ăn Tú Điệp,unknown,restaurant,10.7684298,106.7006584
Quan 1,Nhà Hàng Warda,lebanese,restaurant,10.7745038,106.7043696
Quan 1,Nhà Hàng Pyra,unknown,restaurant,10.7922275,106.717526
Quan 1,Nhà Hàng The Daun,unknown,restaurant,10.7713719,106.6968416
Quan 1,Bún Thịt Nướng - Chị Tuyền,vietnamese,restaurant,10.7619455,106.6935584
Quan 1,Unknown,unknown,cafe,10.7888602,106.6980179
Quan 1,Unknown,unknown,cafe,10.7748219,106.7010571
Quan 1,Cà Phê Amazing,unknown,cafe,10.7732655,106.6990709
Quan 1,Unknown,unknown,cafe,10.7696693,106.6975354
Quan 1,Unknown,unknown,cafe,10.7900979,106.7010543
Quan 1,Unknown,unknown,restaurant,10.7642937,106.6961853
Quan 1,Unknown,unknown,cafe,10.7775263,106.6898272
Quan 1,Unknown,unknown,cafe,10.7722807,106.7042344
Quan 1,Brick & Barrel,spanish;tapas,restaurant,10.769485,106.6979082
Quan 1,Unknown,unknown,cafe,10.7637369,106.6955092
Quan 1,Unknown,unknown,restaurant,10.7692404,106.6982862
Quan 1,Unknown,unknown,restaurant,10.7691883,106.698147
Quan 1,Unknown,unknown,restaurant,10.7859999,106.6993063
Quan 1,Unknown,unknown,cafe,10.7850981,106.7000494
Quan 1,Unknown,unknown,cafe,10.7712337,106.6907569
Quan 1,Starbucks,coffee_shop,cafe,10.7719408,106.7047134
Quan 1,Unknown,unknown,cafe,10.7649431,106.6949931
Quan 1,Unknown,unknown,restaurant,10.7795827,106.7051087
Quan 1,Unknown,unknown,restaurant,10.7752622,106.7032246
Quan 1,Unknown,unknown,cafe,10.7730988,106.6887893
Quan 1,Unknown,seafood;chicken;friture;diner;regional;noodles;fish;pasta;vietnamese;breakfast;local,restaurant,10.7671715,106.6957836
Quan 1,Unknown,vietnamese,restaurant,10.7910453,106.7045317
Quan 1,Nhà Hàng Veggie Saigon,vietnamese,restaurant,10.7634372,106.6958344
Quan 1,Nhà Hàng Hương Việt,vietnamese,restaurant,10.769572,106.6898831
Quan 1,Quán Cơm Chay Sala,andwich;vietnamese,restaurant,10.7730809,106.6891054
Quan 1,Bún Đậu Nhà Làm Home Made,unknown,restaurant,10.7697154,106.6925751
Quan 1,Sup Cua Hanh,unknown,restaurant,10.7678228,106.7003836
Quan 1,nhà hàng bún bò nam bộ,unknown,restaurant,10.7688924,106.699275
Quan 1,Nhà Hàng Sushi Sun,unknown,restaurant,10.7644905,106.6914365
Quan 1,Quán Bụi,vietnamese,restaurant,10.7791849,106.7022879
Quan 1,Unknown,vietnamese,restaurant,10.7763608,106.7050701
Quan 1,Unknown,unknown,cafe,10.7810902,106.6899256
Quan 1,Unknown,unknown,restaurant,10.7890658,106.7027182
Quan 1,Nhà Hàng Kim Hiển,unknown,restaurant,10.7922708,106.6958688
Quan 1,Nhà Hàng Poke Saigon,poke;hawaiian,restaurant,10.7772881,106.7000639
Quan 1,Nhà Hàng Secret Cottage Café Dining,unknown,restaurant,10.7752236,106.7033247
Quan 1,Quán Bar The Sun,asian;bagel;crepe;savory_pancakes;coffee_shop;vietnamese,cafe,10.7682598,106.6941237
Quan 1,Unknown,unknown,cafe,10.7724829,106.6996017
Quan 1,Quán Ăn Mì Quảng,unknown,restaurant,10.7891129,106.6989388
Quan 1,Cà Phê Ngọt,unknown,cafe,10.7563833,106.7032344
Quan 1,Unknown,unknown,cafe,10.7666483,106.6921086
Quan 1,Cà Phê An,unknown,cafe,10.7646794,106.7058473
Quan 1,Cà Phê HMY,unknown,cafe,10.7923981,106.7061022
Quan 1,Cà Phê Su Su,unknown,cafe,10.7922653,106.706285
Quan 1,Nhà Hàng Gánh,vietnamese,restaurant,10.7772353,106.7042485
Quan 1,Cà Phê 1 USD,unknown,cafe,10.7635051,106.6869405
Quan 1,Phở Hùng,unknown,restaurant,10.768855,106.6834375
Quan 1,Burger King,burger,fast_food,10.768326,106.6925979
Quan 1,Unknown,unknown,cafe,10.769934,106.7005826
Quan 1,Royaltea,bubble_tea,cafe,10.7696251,106.6927235
Quan 1,Nhà Hàng Halal Amin,unknown,restaurant,10.7716774,106.6968134
Quan 1,Texas Chicken,chicken,fast_food,10.7675643,106.6955132
Quan 1,Unknown,unknown,fast_food,10.7672131,106.6957464
Quan 1,Unknown,unknown,cafe,10.7739893,106.6990368
Quan 1,Unknown,unknown,restaurant,10.7713331,106.6921032
Quan 1,Unknown,unknown,restaurant,10.7738679,106.6991931
Quan 1,Unknown,unknown,cafe,10.7772485,106.6984262
Quan 1,Unknown,unknown,restaurant,10.7782374,106.6984734
Quan 1,Unknown,unknown,cafe,10.7726264,106.6908822
Quan 1,Unknown,unknown,restaurant,10.7692531,106.6890134
Quan 1,Unknown,unknown,restaurant,10.7658835,106.6965137
Quan 1,Unknown,unknown,restaurant,10.7660634,106.6880507
Quan 1,Unknown,unknown,cafe,10.7628048,106.6875243
Quan 1,Unknown,unknown,cafe,10.7622452,106.6888774
Quan 1,Unknown,unknown,cafe,10.7634389,106.6907097
Quan 1,Unknown,unknown,restaurant,10.7635012,106.6904819
Quan 1,Unknown,unknown,cafe,10.7639298,106.6903456
Quan 1,Trung Nguyên Coffee,coffee_shop;vietnamese,cafe,10.7736119,106.7000454
Quan 1,Unknown,unknown,cafe,10.7624676,106.6885698
Quan 1,Unknown,unknown,restaurant,10.7634116,106.6904194
Quan 1,Unknown,unknown,cafe,10.7700702,106.6885645
Quan 1,Unknown,unknown,fast_food,10.7661395,106.6964155
Quan 1,Unknown,unknown,cafe,10.7926531,106.6959585
Quan 1,Unknown,unknown,restaurant,10.7924115,106.6945446
Quan 1,Highlands Coffee,coffee_shop;vietnamese,cafe,10.7754667,106.6994608
Quan 1,Pho Hien,unknown,restaurant,10.7641797,106.6873551
Quan 1,Unknown,unknown,restaurant,10.7627165,106.6904568
Quan 1,Unknown,unknown,restaurant,10.764041,106.6906517
Quan 1,Unknown,unknown,cafe,10.7657116,106.6906389
Quan 1,Unknown,unknown,cafe,10.7695167,106.6954847
Quan 1,Unknown,unknown,cafe,10.7626597,106.6962335
Quan 1,Unknown,unknown,cafe,10.7632513,106.6972049
Quan 1,Unknown,unknown,cafe,10.7636591,106.697465
Quan 1,Unknown,unknown,cafe,10.7685342,106.6899441
Quan 1,Unknown,unknown,cafe,10.7685519,106.6896731
Quan 1,Unknown,unknown,restaurant,10.7679004,106.688726
Quan 1,bún đậu cầu gõ,unknown,restaurant,10.7677691,106.6886656
Quan 1,Unknown,unknown,cafe,10.7624931,106.696599
Quan 1,Unknown,unknown,cafe,10.7624765,106.6966718
Quan 1,Unknown,unknown,cafe,10.7882136,106.6999164
Quan 1,Cofeedy,unknown,cafe,10.7883762,106.6999326
Quan 1,Unknown,unknown,restaurant,10.7882654,106.6992581
Quan 1,Leu,unknown,cafe,10.7881076,106.6991219
Quan 1,The Gangs,unknown,restaurant,10.7865809,106.6976742
Quan 1,Unknown,unknown,cafe,10.7861973,106.6978576
Quan 1,Unknown,unknown,cafe,10.7854925,106.6987911
Quan 1,Unknown,unknown,restaurant,10.7658428,106.6946649
Quan 1,Unknown,unknown,restaurant,10.7656312,106.6945983
Quan 1,Unknown,unknown,cafe,10.7684779,106.6971843
Quan 1,Quán Thịt Nướng Hàn Quốc,unknown,restaurant,10.7685768,106.6948596
Quan 1,Unknown,unknown,restaurant,10.7679478,106.6886435
Quan 1,Unknown,unknown,cafe,10.7590464,106.6877957
Quan 1,Unknown,unknown,cafe,10.7651915,106.6951197
Quan 1,Unknown,unknown,restaurant,10.786078,106.6979738
Quan 1,Unknown,unknown,cafe,10.7851909,106.6989513
Quan 1,Highlands Coffee,coffee_shop;vietnamese,cafe,10.783607,106.7012693
Quan 1,Unknown,unknown,cafe,10.7770456,106.7001164
Quan 1,Unknown,unknown,cafe,10.7740013,106.6860182
Quan 1,Unknown,unknown,restaurant,10.7730777,106.6850342
Quan 1,Unknown,unknown,restaurant,10.7675621,106.6961788
Quan 1,Unknown,unknown,restaurant,10.7655095,106.6956377
Quan 1,Unknown,unknown,cafe,10.7654085,106.6955003
Quan 1,Cà Phê Koi Thé,unknown,cafe,10.7732455,106.7016973
Quan 1,Unknown,unknown,cafe,10.7684206,106.6989519
Quan 1,Unknown,unknown,restaurant,10.7676321,106.6962516
Quan 1,Tea Time Express,unknown,cafe,10.787423,106.700932
Quan 1,Unknown,unknown,restaurant,10.7818919,106.7014513
Quan 1,Unknown,unknown,restaurant,10.7717028,106.7004373
Quan 1,Hai Nam Chicken Rice 海南雞飯,unknown,restaurant,10.7698472,106.6976699
Quan 1,Unknown,unknown,cafe,10.7688104,106.6950682
Quan 1,Unknown,unknown,restaurant,10.7851178,106.6990233
Quan 1,Tous les Jours,unknown,cafe,10.7698803,106.6861584
Quan 1,Unknown,unknown,restaurant,10.7853571,106.6821444
Quan 1,33 Le's Garden,unknown,cafe,10.7801668,106.6898398
Quan 1,Unknown,unknown,cafe,10.7711352,106.7027073
Quan 1,Unknown,unknown,restaurant,10.7725424,106.6911895
Quan 1,Unknown,unknown,restaurant,10.7837564,106.6854439
Quan 1,Unknown,unknown,restaurant,10.781989,106.6878379
Quan 1,Chang Thai Cafe & Bistro,unknown,restaurant,10.7800964,106.6899191
Quan 1,Nhà Hàng Cơm Quê Mười Khó,unknown,restaurant,10.7788584,106.6909072
Quan 1,Unknown,unknown,cafe,10.7855784,106.6815399
Quan 1,Cà Phê Nguyên,unknown,cafe,10.7791495,106.6905389
Quan 1,Nhà Hàng Marukame Udon & Tempura,unknown,restaurant,10.7728885,106.6956522
Quan 1,Unknown,unknown,restaurant,10.7602416,106.694572
Quan 1,Unknown,unknown,restaurant,10.7861555,106.6806545
Quan 1,Unknown,unknown,restaurant,10.7853885,106.6820924
Quan 1,Unknown,unknown,cafe,10.7803537,106.6892553
Quan 1,Unknown,unknown,restaurant,10.7860952,106.6807471
Quan 1,Unknown,unknown,restaurant,10.7839643,106.6850717
Quan 1,Unknown,unknown,cafe,10.7839267,106.6856866
Quan 1,Unknown,unknown,restaurant,10.7703986,106.7045734
Quan 1,Unknown,unknown,restaurant,10.7833608,106.6859804
Quan 1,Unknown,unknown,restaurant,10.7621137,106.6915028
Quan 1,Unknown,unknown,restaurant,10.7660174,106.6896774
Quan 1,Highlands Coffee,coffee_shop;vietnamese,cafe,10.7762887,106.691498
Quan 1,Unknown,unknown,restaurant,10.7680207,106.6975829
Quan 1,Cà Phê Anh Roastery,unknown,cafe,10.7829754,106.6934854
Quan 1,Unknown,unknown,restaurant,10.7765889,106.690911
Quan 1,Unknown,unknown,restaurant,10.7622173,106.6916727
Quan 1,Unknown,unknown,restaurant,10.7677446,106.6855945
Quan 1,Unknown,unknown,restaurant,10.7806901,106.6889455
Quan 1,Unknown,unknown,restaurant,10.7618253,106.6961272
Quan 1,Unknown,unknown,restaurant,10.7608941,106.6928187
Quan 1,Unknown,unknown,restaurant,10.7616083,106.6919323
Quan 1,Unknown,unknown,restaurant,10.7623938,106.6913057
Quan 1,Unknown,unknown,cafe,10.7661289,106.6894454
Quan 1,Unknown,unknown,cafe,10.7676824,106.6948781
Quan 1,Unknown,unknown,cafe,10.7675143,106.6947074
Quan 1,Unknown,unknown,restaurant,10.7765251,106.6910064
Quan 1,Unknown,unknown,restaurant,10.7609983,106.6927133
Quan 1,Unknown,unknown,restaurant,10.7622896,106.6915501
Quan 1,Nhà Hàng Phúc An Khang,unknown,restaurant,10.7653975,106.6820352
Quan 1,Nhà Hàng - Không Thể Thiếu Nhau,unknown,restaurant,10.7770498,106.6979588
Quan 1,Unknown,unknown,restaurant,10.7600321,106.6942514
Quan 1,Unknown,unknown,cafe,10.7928025,106.6959613
Quan 1,Unknown,unknown,restaurant,10.7599351,106.6937914
Quan 1,Unknown,unknown,cafe,10.7626491,106.6867166
Quan 1,Unknown,unknown,cafe,10.7673784,106.684369
Quan 1,Unknown,unknown,restaurant,10.7664547,106.6825433
Quan 1,Unknown,unknown,cafe,10.7706208,106.7036069
Quan 1,Nhà hàng 241,unknown,restaurant,10.7668464,106.6839392
Quan 1,Unknown,unknown,restaurant,10.7712574,106.6960287
Quan 1,Unknown,unknown,restaurant,10.7668202,106.683554
Quan 1,Unknown,unknown,cafe,10.7931354,106.6958757
Quan 1,Unknown,unknown,restaurant,10.7712554,106.6961696
Quan 1,Unknown,unknown,cafe,10.7694513,106.7024126
Quan 1,Cà Phê The Plus,unknown,cafe,10.7675515,106.7041873
Quan 1,Katinat,unknown,cafe,10.7711456,106.7025259
Quan 1,Unknown,unknown,restaurant,10.7732264,106.7050353
Quan 1,Unknown,unknown,restaurant,10.7729151,106.7053767
Quan 1,Unknown,unknown,restaurant,10.7715565,106.7051257
Quan 1,Unknown,unknown,cafe,10.7730326,106.7034137
Quan 1,Katinat,coffee_shop,cafe,10.7679505,106.7007311
Quan 1,茶sis Teahouse,unknown,cafe,10.7682397,106.7007618
Quan 1,Unknown,unknown,restaurant,10.7716209,106.7054509
Quan 1,Hoàng Tuấn,coffee_shop,cafe,10.7688981,106.6976802
Quan 1,Unknown,unknown,cafe,10.7650852,106.6925908
Quan 1,Unknown,unknown,cafe,10.7622116,106.6964617
Quan 1,Cà Phê Saigon Fusion,unknown,cafe,10.7691497,106.6997524
Quan 1,Unknown,unknown,cafe,10.7673849,106.6883933
Quan 1,Cà Phê Anh,unknown,cafe,10.7642697,106.6924842
Quan 1,Cà Phê Share Tea,unknown,cafe,10.7736759,106.7036585
Quan 1,Khè - Food Garden,unknown,restaurant,10.7675628,106.6882248
Quan 1,Unknown,unknown,restaurant,10.7678387,106.6880225
Quan 1,Unknown,unknown,restaurant,10.7681728,106.687439
Quan 1,Unknown,unknown,restaurant,10.7681358,106.6866835
Quan 1,Unknown,unknown,restaurant,10.7685468,106.6980757
Quan 1,Unknown,unknown,restaurant,10.7687406,106.6978882
Quan 1,Unknown,unknown,restaurant,10.7653259,106.6932832
Quan 1,Unknown,unknown,cafe,10.7634481,106.6931625
Quan 1,Tanpopo,pancake,cafe,10.7723083,106.6947648
Quan 1,Quán Bụi,vietnamese,restaurant,10.7852403,106.702824
Quan 1,Unknown,unknown,restaurant,10.7717156,106.7049639
Quan 1,KFC,fried_chicken,fast_food,10.755651,106.7059479
Quan 1,Cửa Hàng Pizza 4P's,italian;japanese,restaurant,10.7734232,106.6976926
Quan 1,Nhà Hàng Italiani Homemade Pizza,unknown,restaurant,10.7714995,106.6934199
Quan 1,Unknown,italian;pizza;japanese,restaurant,10.7833039,106.6971985
Quan 1,Unknown,unknown,restaurant,10.7738501,106.6980978
Quan 1,Unknown,unknown,cafe,10.7744347,106.6984912
Quan 1,Unknown,unknown,restaurant,10.7732816,106.6976776
Quan 1,Phúc Long Coffee,coffee_shop,cafe,10.771387,106.6955645
Quan 1,Nem Nướng Oanh Vy,vietnamese,restaurant,10.7646006,106.6877956
Quan 1,Unknown,unknown,cafe,10.791207,106.691214
Quan 1,Cafe Chất,unknown,cafe,10.7558662,106.6933668
Quan 1,Unknown,unknown,restaurant,10.7621125,106.6963927
Quan 1,Unknown,unknown,restaurant,10.7720039,106.7032848
Quan 1,Highlands Coffee,coffee_shop;vietnamese,cafe,10.7829101,106.6964275
Quan 1,Unknown,unknown,restaurant,10.7852475,106.6831486
Quan 1,Nhà Hàng Hoa Viên Brauhaus,unknown,restaurant,10.7859602,106.6991774
Quan 1,Unknown,unknown,restaurant,10.785328,106.7002136
Quan 1,Unknown,unknown,fast_food,10.7676538,106.6944445
Quan 1,Nhà Hàng Út Cà Mau,vietnamese;seafood,restaurant,10.7659641,106.6823741
Quan 1,Nhà Hàng Vườn Biển,unknown,restaurant,10.7823951,106.6874827
Quan 1,Cộng Cà Phê,coffee_shop;vietnamese,cafe,10.7831523,106.695846
Quan 1,Nhà Hàng RIO,steak_house;brazilian,restaurant,10.7797521,106.7041192
Quan 1,Nhà Hàng Ba Con Cừu,unknown,restaurant,10.7724078,106.6794545
Quan 1,Unknown,burger,restaurant,10.7689437,106.6985113
Quan 1,Sushi Hokkaido Sachi - Nguyễn Đình Chiểu,japanese,restaurant,10.7803652,106.6916709
Quan 1,Nhà Hàng Founder Bak Kut Teh,malaysian,restaurant,10.7779146,106.6896614
Quan 1,Unknown,vietnamese,fast_food,10.7789193,106.7026545
Quan 1,Cà Phê The Central,unknown,cafe,10.7745417,106.7027372
Quan 1,Nhà Hàng Shamoji,unknown,restaurant,10.7745701,106.7026895
Quan 1,Nhà Làm Phở,vietnamese,restaurant,10.7634989,106.6906117
Quan 1,Quán Cơm Tâm Mộc,unknown,restaurant,10.7745395,106.6978834
Quan 1,Unknown,unknown,restaurant,10.7690425,106.6833598
Quan 1,Lâu Bò Tí Chuột,unknown,restaurant,10.7631704,106.6904216
Quan 1,Unknown,unknown,restaurant,10.7696108,106.6837139
Quan 1,Nhà Hàng Kimbap City,unknown,restaurant,10.7794535,106.680389
Quan 1,Elgin,unknown,restaurant,10.7848935,106.6992746
Quan 1,Nhà hàng Ếch Xanh,vietnamese,restaurant,10.7600848,106.6859042
Quan 1,Quán Ốc Chị Hồng,unknown,restaurant,10.7803951,106.6785501
Quan 1,Nhà Hàng Uncle Tea - Dimsum,unknown,restaurant,10.7607643,106.6998257
Quan 1,Bánh Cuốn Ba Miền,unknown,restaurant,10.7825838,106.6802444
Quan 1,Bánh Cuốn Thanh Trì Phương,unknown,restaurant,10.7823573,106.7039723
Quan 1,Cà Phê Nguyên Chất,unknown,cafe,10.7806227,106.6798438
Quan 1,Cà Phê Trum,unknown,cafe,10.780256,106.6795379
Quan 1,Unknown,unknown,restaurant,10.7660425,106.6946266
Quan 1,Cơm Chay Hòa Hảo,unknown,restaurant,10.7708322,106.6792575
Quan 1,Italiani's Pizza Han Thuyen,italian_pizza;pizza,restaurant,10.7788383,106.6981831
Quan 1,Unknown,unknown,cafe,10.7818799,106.6877855
Quan 1,Cô Ba Quán,unknown,restaurant,10.7943375,106.7096827
Quan 1,Phở 24,vietnamese;noodle,restaurant,10.7779136,106.7019753
Quan 1,Quán Chay Chị Củ,unknown,restaurant,10.7592259,106.6921641
Quan 1,Unknown,unknown,cafe,10.7887468,106.6834957
Quan 1,Unknown,unknown,restaurant,10.7770806,106.6997383
Quan 1,Bún Bò Huế Đông Ba,unknown,restaurant,10.7743939,106.6953077
Quan 1,Nhà Hàng Le Corto,french;vietnamese,restaurant,10.7778906,106.7046314
Quan 1,Unknown,unknown,cafe,10.7881998,106.7093352
Quan 1,Quán Nước Năm Hào,unknown,cafe,10.7913037,106.7112274
Quan 1,Unknown,japanese;sushi,restaurant,10.7809545,106.7054102
Quan 1,Unknown,korean,restaurant,10.7848233,106.696049
Quan 1,Nhà Hàng Bia Bỉ Belgo -The Belgian Craft Beer Brewery,unknown,restaurant,10.7885585,106.6981074
Quan 1,Cà Phê A'dor,unknown,cafe,10.7760216,106.6788139
Quan 1,Nhà Hàng Sushi Ko,japanese,restaurant,10.7608436,106.704794
Quan 1,Nhà Hàng Gold One 5,hải_sản;đồ_nhật,restaurant,10.7659379,106.696495
Quan 1,Quán Nhà,unknown,restaurant,10.7668609,106.7010004
Quan 1,Nhà Hàng Thóc,barbecue;vietnamese;seafood,restaurant,10.76482,106.6949607
Quan 1,Unknown,unknown,restaurant,10.7797191,106.7049462
Quan 1,Highlands Coffee,coffee_shop;vietnamese,cafe,10.7782497,106.6800034
Quan 1,Nhà Hàng Cơm Chay,unknown,restaurant,10.7776667,106.6787439
Quan 1,Quán Bò Né,unknown,restaurant,10.778864,106.679548
Quan 1,Nhà Hàng True Beef,unknown,restaurant,10.777461,106.6791688
Quan 1,Unknown,unknown,restaurant,10.775207,106.7006022
Quan 1,Nhà Hàng Hương Vy II,unknown,restaurant,10.7682101,106.6944222
Quan 1,Bún Chả Que Tre Bà Bảy,unknown,restaurant,10.7689734,106.6993762
Quan 1,Nhà Hàng Mai Xuân Canh,unknown,restaurant,10.779395,106.7005031
Quan 1,Unknown,unknown,restaurant,10.7741771,106.7040143
Quan 1,Cà Phê Mùa Hè,coffee_shop,cafe,10.7789735,106.7023243
Quan 1,Quán A Kafé,unknown,cafe,10.7760918,106.6900444
Quan 1,Quán Ăn Ruông,vietnamese,restaurant,10.7749562,106.6979121
Quan 1,Highlands Coffee,coffee_shop;vietnamese,cafe,10.7766096,106.6884669
Quan 1,Nhà Hàng Little Viet,unknown,restaurant,10.7721763,106.6919054
Quan 1,Unknown,unknown,restaurant,10.7859104,106.6868943
Quan 1,Nhà Hàng - Cà Phê Lâm,vietnamese;thai;korean;noodles;international,restaurant,10.7659753,106.6910786
Quan 1,Nhà Hàng Anjisen Ramen,unknown,restaurant,10.7850823,106.6962802
Quan 1,Quán Ăn Bún Thịt Nướng,unknown,restaurant,10.7878849,106.6962102
Quan 1,Bánh Cuốn Hồng Hạnh,unknown,restaurant,10.7854466,106.7003797
Quan 1,Unknown,unknown,cafe,10.7762191,106.6857003
Quan 1,Phở Bình,vietnamese,restaurant,10.7687998,106.6836803
Quan 1,Quán Mèo Mập,unknown,restaurant,10.7700723,106.6811389
Quan 1,Cà Phê Và Kem Nếp Cẩm,unknown,cafe,10.7917512,106.6931313
Quan 1,Nhà Hàng Shanti Indian Cuisine,indian,restaurant,10.7670963,106.6893396
Quan 1,Quán Bún Chả Hà Nội,unknown,restaurant,10.7753468,106.689265
Quan 1,Nhà Hàng Here & Now,unknown,restaurant,10.7898332,106.7109547
Quan 1,Tiệm Mì Hữu Ký,chinese,restaurant,10.7923214,106.7089215
Quan 1,Hủ Tiếu Thành Đạt - Cô Bắc,unknown,restaurant,10.7657017,106.6956594
Quan 1,Lương Ký Mì Gia,chinese,restaurant,10.7918935,106.7089558
Quan 1,Hủ Tiếu Mì Hỷ Hào,vietnamese,restaurant,10.7632196,106.7002338
Quan 1,Quán Bún Mắm 144,unknown,restaurant,10.7574411,106.7002611
Quan 1,Mì Quảng Phan,unknown,restaurant,10.7594098,106.6987798
Quan 1,Quán Bún Bò Huế - Vinh Hiền,unknown,restaurant,10.7612594,106.6999017
Quan 1,Unknown,vietnamese,restaurant,10.7652837,106.6947766
Quan 1,Cà Phê - Khách Sạn The Hut Boutique,unknown,cafe,10.7864671,106.692754
Quan 1,King BBQ Buffet,unknown,restaurant,10.7725419,106.7036929
Quan 1,Cà Phê Tractor,unknown,cafe,10.7700609,106.6934601
Quan 1,Sen Nhà hàng chay,unknown,cafe,10.7690855,106.7000419
Quan 1,Nhà Hàng Nhật Manmaru,japanese,restaurant,10.7882694,106.6956305
Quan 1,"Cửa Hàng Aloha Boys Poke, Salad & Juice Bar",unknown,cafe,10.7682389,106.6935934
Quan 1,Cà Phê Share Tea,unknown,cafe,10.7732755,106.7016718
Quan 1,Royaltea,bubble_tea,cafe,10.7870973,106.6911433
Quan 1,PHU24,unknown,restaurant,10.7883681,106.6994147
Quan 1,Nhà Hàng Bum Cha,unknown,restaurant,10.7900228,106.7011029
Quan 1,Unknown,unknown,restaurant,10.7851153,106.6944442
Quan 1,Unknown,vietnamese;international,restaurant,10.7887402,106.7034522
Quan 1,Unknown,vietnamese,restaurant,10.7918847,106.6999448
Quan 1,Unknown,coffee_shop,cafe,10.7893216,106.702721
Quan 1,Unknown,vietnamese;coffee_shop,cafe,10.7879681,106.7047146
Quan 1,Unknown,unknown,restaurant,10.7655321,106.6904484
Quan 1,Cà Phê Flat White,unknown,cafe,10.7716243,106.6935693
Quan 1,T-Plus Coffee,unknown,cafe,10.7743341,106.6990072
Quan 1,Unknown,unknown,restaurant,10.7728682,106.6954207
Quan 1,Nhà Hàng Nanna's,unknown,restaurant,10.7692421,106.6934409
Quan 1,Quán Cơm Tấm Bụi SG,unknown,restaurant,10.790824,106.6915329
Quan 1,Unknown,sushi;japanese,restaurant,10.7711365,106.6873236
Quan 1,Nhà Hàng Downtown Steakhouse,unknown,restaurant,10.7740005,106.7042278
Quan 1,Unknown,unknown,restaurant,10.7916599,106.7003624
Quan 1,Nhà Hàng - Cà Phê Lá Vàng,unknown,restaurant,10.7661639,106.6912985
Quan 1,Pepper Lunch,teppanyaki,fast_food,10.7780355,106.7017976
Quan 1,Nhà Hàng Tê Tê & Phê Quán,unknown,restaurant,10.7888308,106.6979008
Quan 1,Nhà Hàng Funny Beef,unknown,restaurant,10.7741495,106.7042153
Quan 1,Bún Chả Hồ Gươm,vietnamese,restaurant,10.7724791,106.7039146
Quan 1,Nhà Hàng Union Jack's Fish & Chips,fish_and_chips,restaurant,10.7730705,106.7025314
Quan 1,Nhà Hàng Soul Bến Thành,unknown,restaurant,10.7731967,106.6975865
Quan 1,Quán Phở 1954,vietnamese,restaurant,10.7718726,106.6961063
Quan 1,Unknown,unknown,cafe,10.7662814,106.688136
Quan 1,Nhà Hàng El Camino Korean Tacos,unknown,restaurant,10.7889453,106.6979385
Quan 1,Nhà Hàng Ngon Villa Saigon,unknown,restaurant,10.7856978,106.6936699
Quan 1,Unknown,unknown,fast_food,10.7668029,106.6883577
Quan 1,Quán ăn gia đình 79,vietnamese,restaurant,10.7635434,106.6957721
Quan 1,Trà Sữa TocoToco,tea,cafe,10.7670419,106.6958942
Quan 1,Cà Phê Boo,unknown,cafe,10.7740557,106.7041347
Quan 1,Nhà Hàng Âu Lạc - Healthy World,vietnamese;asian;sandwich,restaurant,10.7700134,106.6913019
Quan 1,Quán Chay 20,vietnamese,restaurant,10.7592442,106.692266
Quan 1,Tiệm Cơm Chay Pháp Hoa,vietnamese,restaurant,10.7632075,106.6880568
Quan 1,Unknown,unknown,fast_food,10.7717529,106.6855586
Quan 1,Unknown,unknown,cafe,10.7764282,106.7066432
Quan 1,Cà Phê Vegetarian,unknown,cafe,10.7801611,106.6921275
Quan 1,Nhà Hàng Ấn Độ Gujarat,indian,restaurant,10.7673132,106.6909915
Quan 1,Cộng Cà Phê,coffee_shop;vietnamese,cafe,10.7707042,106.6879095
Quan 1,Kafka Cafe & Prem Restaurant,unknown,cafe,10.7787456,106.6903529
Quan 1,Cà Phê Hahn - Ankunft Bus,unknown,cafe,10.7683777,106.6926014
Quan 1,Unknown,unknown,cafe,10.7724991,106.6973312
Quan 1,Unknown,unknown,restaurant,10.7796805,106.7040637
Quan 1,Cộng Cà Phê,coffee_shop;vietnamese,cafe,10.788868,106.6907767
Quan 1,Cà Phê Trứng 3T,unknown,cafe,10.7939837,106.6860754
Quan 1,Cà Phê Live Jazz,unknown,cafe,10.7743567,106.7006343
Quan 1,Highlands Coffee,coffee_shop;vietnamese,cafe,10.7871519,106.7120719
Quan 1,Căn tin,unknown,restaurant,10.7820571,106.7037068
Quan 1,Phở 24,vietnamese;noodle,restaurant,10.7771167,106.6996747
Quan 1,Cà Phê Thức,unknown,cafe,10.7770535,106.6997485
Quan 1,Ốc Vân,unknown,restaurant,10.7718561,106.6971119
Quan 1,Nhà Hàng Haji Idris,unknown,restaurant,10.7717777,106.6969744
Quan 1,Nhà Hàng Haji Osman,unknown,restaurant,10.7717408,106.6969067
Quan 1,Nhà Hàng Musakariem,unknown,restaurant,10.771617,106.6967243
Quan 1,Cà Phê The V,unknown,cafe,10.7729647,106.6971172
Quan 1,Quán Cơm Halal,unknown,restaurant,10.7699602,106.7014537
Quan 1,Quán Cơm Gà Hải Nam,unknown,restaurant,10.7700564,106.7004318
Quan 1,Nhà Hàng Đồng Nhân,unknown,restaurant,10.7734311,106.7026178
Quan 1,Phúc Long - Huỳnh Thúc Kháng,coffee_shop,cafe,10.7730412,106.7025775
Quan 1,Nhà Hàng Kyu Shige,grill,restaurant,10.7731525,106.7022993
Quan 1,Cà Phê Royaltea,unknown,cafe,10.7752924,106.7028656
Quan 1,Nhà Hàng IPPUDO,unknown,restaurant,10.7797911,106.7038529
Quan 1,Nhà Hàng Shang Palace,unknown,restaurant,10.7807397,106.7038268
Quan 1,Nhà Hàng Zen,unknown,restaurant,10.7814234,106.705009
Quan 1,Tous les Jours,unknown,cafe,10.7819458,106.7056668
Quan 1,Nhà Hàng Katsu,unknown,restaurant,10.7821981,106.7059216
Quan 1,Nhà Hàng Bishin,unknown,restaurant,10.7823364,106.7058901
Quan 1,Nhà Hàng Riêu Cá Chép,unknown,restaurant,10.782478,106.705707
Quan 1,Unknown,unknown,restaurant,10.783557,106.7028458
Quan 1,Nhà Hàng Truly Việt,vietnamese,restaurant,10.7718587,106.6963065
Quan 1,Unknown,unknown,cafe,10.7890806,106.6972991
Quan 1,Cà Phê Mộc Quán,unknown,cafe,10.7566475,106.7027713
Quan 1,Quán Bò Bía,unknown,fast_food,10.7875483,106.6923112
Quan 1,Unknown,coffee_shop;tea;vietnamese,cafe,10.7874072,106.696782
Quan 1,Nhà Hàng Prem Bistro & Cafe,italian;vietnamese,restaurant,10.7787296,106.690433
Quan 1,Quán Ăn Cô Tư,italian;vietnamese,restaurant,10.7647004,106.7059021
Quan 1,L Cà Phê,unknown,cafe,10.7682977,106.6933782
Quan 1,Nhà Hàng The Street - BBQ & Beer,korean,restaurant,10.7866761,106.6894166
Quan 1,Nhà Hàng Nam Sơn Beefsteaks,steak_house,restaurant,10.7819618,106.6926726
Quan 1,Unknown,unknown,restaurant,10.7917374,106.7116321
Quan 1,Nhà Hàng Menya Takeichi & Yakitori Shindo,unknown,restaurant,10.7696694,106.6908274
Quan 1,Nhà Hàng Lẩu Cua Đồng,unknown,restaurant,10.7762701,106.6913491
Quan 1,Nhà Hàng Salad,unknown,restaurant,10.7744988,106.6902052
Quan 1,Cà Phê Okinawa,coffee,cafe,10.7840335,106.6802568
Quan 1,Sushi Gõ,sushi;sashimi;japanese,restaurant,10.7893608,106.7095502
Quan 1,Cháo Ếch Singapore,unknown,restaurant,10.7695678,106.6881981
Quan 1,Nhà Hàng Kichi Kichi,unknown,restaurant,10.7804743,106.691692
Quan 1,Nhà Hàng The 7P,italian,restaurant,10.7851277,106.7010816
Quan 1,Bánh Mì Cụ Lý,unknown,fast_food,10.7859153,106.6944055
Quan 1,Unknown,unknown,cafe,10.7624394,106.6903
Quan 1,Nhà Hàng Hotspot,unknown,restaurant,10.7760845,106.6898873
Quan 1,Nhà Hàng Chuck's Burgers PVC,burger,restaurant,10.790156,106.7105063
Quan 1,Trung Nguyên Coffee,coffee_shop;vietnamese,cafe,10.7872715,106.6868994
Quan 1,Unknown,unknown,restaurant,10.7865798,106.6876229
Quan 1,Unknown,unknown,restaurant,10.7890236,106.6849346
Quan 1,Unknown,unknown,restaurant,10.7685984,106.6978493
Quan 1,Cộng Cà Phê,coffee_shop;vietnamese,cafe,10.7580147,106.6999221
Quan 1,Unknown,cake;coffee_shop;sandwich;tea,cafe,10.7664367,106.7042668
Quan 1,Hatvala - Tea Shop,unknown,cafe,10.7941163,106.6961594
Quan 1,Trà Sữa GongCha,coffee_shop,cafe,10.7883637,106.699288
Quan 1,Cà Phê Thanh,unknown,cafe,10.7729237,106.7052196
Quan 1,Cà Phê Đô Hội,unknown,cafe,10.7971261,106.6912815
Quan 1,Sushi Hokkaido Sachi - Nguyễn Trãi,unknown,restaurant,10.7692705,106.690576
Quan 1,Cà Phê Saigon Casa,unknown,cafe,10.7883615,106.6850468
Quan 1,Nhà Hàng Hải Sản Rạn Biển 5,unknown,restaurant,10.7869111,106.6868855
Quan 1,Nhà Hàng The Gangs,unknown,restaurant,10.7868339,106.6976992
Quan 1,Ốc Ghe,unknown,restaurant,10.7868756,106.6975129
Quan 1,Warning Zone Garden - Nguyễn Đình Chiểu,unknown,restaurant,10.7860954,106.6974554
Quan 1,Lẩu Cá Kèo Bà Huyện 18,unknown,restaurant,10.7766174,106.6890693
Quan 1,Warning Zone - Hai Bà Trưng,unknown,restaurant,10.785167,106.6952273
Quan 1,Katinat,unknown,cafe,10.7735654,106.6983486
Quan 1,Nhà Hàng Ru Nam D'or,unknown,restaurant,10.7792416,106.6989688
Quan 1,Sushi Hokkaido Sachi - Pasteur,unknown,restaurant,10.7784255,106.6986185
Quan 1,Cà Phê Phindeli,unknown,cafe,10.7822276,106.6961969
Quan 1,ZumWhere - Ngô Thời Nhiệm,unknown,restaurant,10.7793255,106.6887919
Quan 1,Nhà Hàng Chay Garden,vietnamese,restaurant,10.778213,106.6907115
Quan 1,Trung Nguyên Coffee,coffee_shop;vietnamese,cafe,10.7793653,106.6962527
Quan 1,Đen Đá Coffee - Pasteur,unknown,cafe,10.7783879,106.6982947
Quan 1,Nhà Hàng Sơn Thuỷ,unknown,restaurant,10.7768621,106.6844293
Quan 1,Nhà Hàng Biển Dương 6,unknown,restaurant,10.7760138,106.6845491
Quan 1,Nhà Hàng Lux 68,unknown,restaurant,10.7754415,106.6873936
Quan 1,Nhà Hàng Xẻng - Mồi & Bia,unknown,restaurant,10.7904912,106.701245
Quan 1,Nhà Hàng Ốc Loan,seafood,restaurant,10.7611764,106.7026939
Quan 1,Quán Ốc Vũ,seafood,restaurant,10.7614355,106.7026723
Quan 1,Quán Nhớ Tuyết,unknown,restaurant,10.7665673,106.7008501
Quan 1,Warning Zone,unknown,restaurant,10.790053,106.6989515
Quan 1,Xích Lô Quán,unknown,restaurant,10.7668787,106.6946896
Quan 1,Tân Lập Quán,unknown,restaurant,10.7718195,106.6956418
Quan 1,Cà Phê Cheese,unknown,cafe,10.7713122,106.6915914
Quan 1,Hạnh Cafe - Phạm Ngũ Lão,unknown,cafe,10.7681932,106.6922097
Quan 1,Nhà Hàng Matchandeul Korean BBQ,unknown,restaurant,10.7690243,106.6897956
Quan 1,Hàng Dương Quán Quận 4,unknown,restaurant,10.7589186,106.6987722
Quan 1,Highlands Coffee,coffee_shop;vietnamese,cafe,10.7785873,106.6800129
Quan 1,Katinat,bubble_tea,cafe,10.7779402,106.6810415
Quan 1,Three O'Clock - Nguyễn Thị Minh Khai,unknown,cafe,10.7679645,106.683628
Quan 1,Nhà Hàng Qui Cuisine Mixology,unknown,restaurant,10.7806505,106.7046277
Quan 1,Cửa Hàng Conservo Japanese Bakery Cafe,coffee_shop,cafe,10.7818414,106.7048071
Quan 1,Quán Ốc Khánh,unknown,restaurant,10.7878273,106.7038536
Quan 1,Nhà Hàng Baozi,unknown,restaurant,10.7719222,106.7036619
Quan 1,Katinat,unknown,cafe,10.7710316,106.6935158
Quan 1,Highlands Coffee,coffee_shop;vietnamese,cafe,10.790559,106.7188108
Quan 1,Cà Phê Cheese Hoa Lan,unknown,cafe,10.7967539,106.6903635
Quan 1,The Running Bean Hồ Tùng Mậu,unknown,cafe,10.7728101,106.7032534
Quan 1,Sushi Hokkaido Sachi - Đông Du,unknown,restaurant,10.7764843,106.704855
Quan 1,Godmother Bake & Brunch,unknown,restaurant,10.7734268,106.7061646
Quan 1,Nhà Hàng Dim Tu Tac,unknown,restaurant,10.7755305,106.7043576
Quan 1,The Running Bean - Mạc Thị Bưởi,unknown,restaurant,10.7752612,106.7048694
Quan 1,Lạc Thái Restaurant,unknown,restaurant,10.7745358,106.7045405
Quan 1,Katinat - Đồng Khởi,unknown,cafe,10.7746804,106.7043718
Quan 1,Kyung Bok Gung Korean Restaurant,unknown,restaurant,10.7771854,106.7045606
Quan 1,Jumbo Seafood,unknown,restaurant,10.7734792,106.7060951
Quan 1,The Long @ Times Square,unknown,restaurant,10.7737956,106.7045987
Quan 1,Starbucks,coffee_shop,cafe,10.773341,106.703915
Quan 1,TukTuk Thai Bistro,thai,restaurant,10.7775128,106.7003806
Quan 1,Beefsteak Hai Con Bò - Nguyễn Cư Trinh,unknown,restaurant,10.7637701,106.6901925
Quan 1,Gyu Shige Ngưu Phồn - Hồ Tùng Mậu,unknown,restaurant,10.7732946,106.7029288
Quan 1,Jumbo Seafood,unknown,restaurant,10.7733489,106.7062496
Quan 1,Long Xuyên Quán 2 - Cơm Tấm Bánh Tằm Bì,asian,restaurant,10.759215,106.6994237
Quan 1,El Gaucho | Saigon Pearl,steak_house,restaurant,10.7899674,106.7179119
Quan 1,Pho 24,vietnamese;beef_noodle,restaurant,10.7891986,106.7174195
Quan 1,Cà Phê Chateraise Lê Thánh Tôn,cafe;bakery;japanese,cafe,10.77908,106.7035922
Quan 1,Gartenstadt Restaurant,german,restaurant,10.774512,106.704844
Quan 1,Unknown,unknown,restaurant,10.7862089,106.6868919
Quan 1,Bún bò Xuà,unknown,restaurant,10.7741699,106.6883245
Quan 1,Bánh khot Cô Ba Vûng Tàu,unknown,restaurant,10.7833289,106.696445
Quan 1,Vuông- Coffee & Booze,coffee_shop,cafe,10.7921954,106.7128449
Quan 1,Unknown,unknown,cafe,10.7671081,106.6894089
Quan 1,Unknown,unknown,restaurant,10.7713957,106.6927757
Quan 1,Unknown,unknown,restaurant,10.781172,106.6911148
Quan 1,Highlands Coffee,coffee_shop;vietnamese,cafe,10.7747454,106.6982421
Quan 1,Tra Tien Huong,unknown,cafe,10.773251,106.6892161
Quan 1,Highlands Coffee,coffee_shop;vietnamese,cafe,10.7696434,106.6852261
Quan 1,Bahn Mi Chim Chay,unknown,fast_food,10.7709754,106.6871085
Quan 1,Unknown,unknown,cafe,10.7710513,106.6930207
Quan 1,Phở Anh,vietnamese,restaurant,10.7846701,106.682885
Quan 1,Cà phê 66,unknown,cafe,10.7895091,106.6956584
Quan 1,Unknown,unknown,restaurant,10.7767314,106.6894832
Quan 1,Kalf Coffee & Tea,coffee_shop,cafe,10.7784708,106.6985896
Quan 1,Unknown,unknown,cafe,10.7695039,106.6961547
Quan 1,FnB Services,vietnamese,restaurant,10.7764313,106.6854351
Quan 1,Vina Talents - Khai Sáng Tài Năng Việt,vietnamese,restaurant,10.7875106,106.6917181
Quan 1,Bánh Mì Huynh Hoa,sandwich;vietnamese,restaurant,10.7714689,106.692371
Quan 1,Phở Việt Nam,vietnamese,restaurant,10.771252,106.6962092
Quan 1,Bò né Bà Nũi,vietnamese,restaurant,10.7684873,106.6988672
Quan 1,Ănăn Saigon,seafood;vietnamese,restaurant,10.7718032,106.7029748
Quan 1,맛찬들 소금구이,unknown,restaurant,10.7673838,106.6911045
Quan 1,Linh,unknown,cafe,10.7710994,106.6963805
Quan 1,Linh,unknown,cafe,10.7712929,106.6964334
Quan 1,Unknown,unknown,restaurant,10.7687051,106.6973071
Quan 1,Unknown,unknown,cafe,10.7721187,106.6859738
Quan 1,Unknown,vietnamese,restaurant,10.779601,106.7027786
Quan 1,Little HaNoi Egg Coffee,breakfast;coffee_shop;sandwich;vietnamese,cafe,10.768602,106.6900885
Quan 1,Bánh mì Bà Huynh,vietnamese,fast_food,10.7663251,106.6881865
Quan 1,Fritz,german,restaurant,10.7661583,106.6895948
Quan 1,Pho Hai thien,unknown,restaurant,10.7678297,106.6950547
Quan 1,Unknown,vietnamese,restaurant,10.7677865,106.6937588
Quan 1,Gió,unknown,restaurant,10.7882025,106.7089329
Quan 1,Saigon Cafe,unknown,restaurant,10.7867196,106.7111343
Quan 1,Unknown,vietnamese,restaurant,10.7935158,106.6867987
Quan 1,Unknown,vietnamese,restaurant,10.7920804,106.6870007
Quan 1,Quán Chay Nhà Tôi,vietnamese,restaurant,10.7884577,106.6975684
Quan 1,18 BEER CLUB,vietnamese;coffee_shop,restaurant,10.7736329,106.6974832
Quan 1,Unknown,unknown,cafe,10.7867159,106.699816
Quan 1,Unknown,unknown,restaurant,10.7798488,106.7028982
Quan 1,Okkio,unknown,cafe,10.7757723,106.7032334
Quan 1,Rau Ơi,unknown,restaurant,10.768605,106.6979483
Quan 1,Bep Me In,unknown,restaurant,10.7675414,106.698786
Quan 1,SBS GI,vietnamese,restaurant,10.7842139,106.6963563
Quan 1,Unknown,unknown,restaurant,10.7703176,106.6944165
Quan 1,Le Comptoir,local,restaurant,10.7742088,106.7058054
Quan 1,Highlands Coffee,coffee_shop;vietnamese,cafe,10.7823677,106.6894469
Quan 1,Quan nem,vietnamese,restaurant,10.7858018,106.7009098
Quan 1,365 Chay,unknown,cafe,10.7693971,106.6972643
Quan 1,Bon's vegan,unknown,restaurant,10.7707914,106.7003549
Quan 1,JUICETIN,coffee_shop,cafe,10.780694,106.707006
Quan 1,Unknown,unknown,cafe,10.7669113,106.6976088
Quan 1,Le Mékong,unknown,restaurant,10.7782912,106.6908268
Quan 1,Nhà Của Mèo,unknown,cafe,10.7859053,106.7047625
Quan 1,Unknown,curry,restaurant,10.7719595,106.695915
Quan 1,Highlands Coffee,coffee_shop;vietnamese,cafe,10.778199,106.7132184
Quan 1,C.Tao Chinese Restaurant,chinese,restaurant,10.7791876,106.7133246
Quan 1,Quán Út Hương,vietnamese,restaurant,10.7579166,106.6889111
Quan 1,Pasta Danza Cafe,pizza,restaurant,10.7687232,106.7012824
Quan 1,Unknown,english,restaurant,10.7649331,106.6947879
Quan 1,Unknown,unknown,restaurant,10.7651522,106.6952164
Quan 1,Highlands Coffee,coffee_shop;vietnamese,cafe,10.7666718,106.7040962
Quan 1,Starbucks,coffee_shop,cafe,10.7668418,106.7040273
Quan 1,BanhMi 362,unknown,restaurant,10.7838673,106.6971695
Quan 1,Unknown,unknown,restaurant,10.7688175,106.6939141
Quan 1,Vo roof,unknown,restaurant,10.7721804,106.7027227
Quan 1,Unknown,unknown,restaurant,10.7707831,106.6862844
Quan 1,Unknown,unknown,restaurant,10.7709508,106.6860176
Quan 1,Unknown,unknown,cafe,10.7772998,106.6883422
Quan 1,Unknown,unknown,restaurant,10.771379,106.6805499
Quan 1,Unknown,unknown,restaurant,10.7690011,106.697689
Quan 1,Unknown,unknown,restaurant,10.7745901,106.7053652
Quan 1,Unknown,unknown,fast_food,10.7581526,106.6894914
Quan 1,Unknown,unknown,cafe,10.761496,106.6900868
Quan 1,Unknown,unknown,fast_food,10.775513,106.6898245
Quan 1,Mixue,ice_cream;bubble_tea,cafe,10.7930786,106.7106341
Quan 1,Unknown,unknown,cafe,10.7720697,106.6860364
Quan 1,Unknown,unknown,cafe,10.764035,106.7004839
Quan 1,Gióng,unknown,cafe,10.7793468,106.7004214
Quan 1,Unknown,unknown,restaurant,10.772706,106.6984247
Quan 1,Café 30/4,unknown,cafe,10.7765828,106.696011
Quan 1,Trứng - Cafe & Dessert,coffee_shop;sandwich;cake;dessert,cafe,10.7958025,106.7056011
Quan 1,Dinh Độc Lập Cafe,unknown,cafe,10.7766797,106.6971987
Quan 1,Unknown,unknown,cafe,10.7605562,106.7017302
Quan 1,HolaFresh Nguyễn Đình Chiểu,juice,fast_food,10.7718359,106.6839931
Quan 1,Cafés Le,unknown,cafe,10.774285,106.6986867
Quan 1,Starbucks,coffee_shop,cafe,10.7746116,106.706044
Quan 1,Phuc Long,coffee_shop,cafe,10.7733575,106.705484
Quan 1,Dynasty House,chinese,restaurant,10.7737014,106.7058682
Quan 1,Lẩu Hồng Kông Ông Sủi,unknown,restaurant,10.7686414,106.69044
Quan 1,Hana - Sinh Tố - Nước Ép,unknown,cafe,10.7608212,106.7011591
Quan 1,Qúan Chay Liên Yến,vietnamese,restaurant,10.7823261,106.6796323
Quan 1,Văn minh cà phê,unknown,cafe,10.7751982,106.7040925
Quan 1,Anh Đào - Bánh Cuốn (20k),unknown,restaurant,10.764137,106.6960108
Quan 1,Unknown,unknown,restaurant,10.7734115,106.6979316
Quan 1,Guru Restaurant,unknown,restaurant,10.7840441,106.6828024
Quan 1,D'Nyonya,unknown,restaurant,10.7764578,106.7049642
Quan 1,Bún riêu ganh,unknown,cafe,10.7739063,106.698934
Quan 1,Xôi Gà Number One,unknown,fast_food,10.7737822,106.6992243
Quan 1,Unknown,unknown,restaurant,10.7722345,106.7036201
Quan 1,宇奈とと,japanese,restaurant,10.7725346,106.6957833
Quan 1,丸亀製麺,japanese;udon,restaurant,10.7727729,106.6956468
Quan 1,Thuan Kieu Vietnamese restaurant,unknown,restaurant,10.7675946,106.6973498
Quan 1,Kai Coffee,unknown,cafe,10.7679953,106.6985462
Quan 1,Ẩm thực Hai Lúa,japanese,restaurant,10.7830982,106.6825499
Quan 1,Mì Danbo Ramen,japanese,restaurant,10.7797429,106.7049066
Quan 1,ICHIBANYA,japanese,restaurant,10.7799782,106.704803
Quan 1,麺屋ふた葉,japanese,restaurant,10.7798863,106.7049238
Quan 1,KOME,japanese,restaurant,10.7796159,106.7052237
Quan 1,割烹多ま,japanese,restaurant,10.7794935,106.7052172
Quan 1,Torasan,japanese,restaurant,10.7794442,106.7048775
Quan 1,Bún Chả Hà Nội 26,unknown,restaurant,10.7791805,106.7051631
Quan 1,sorimmara,unknown,restaurant,10.7797644,106.7041842
Quan 1,諭吉ラーメン,japanese,restaurant,10.7798854,106.7056858
Quan 1,hà Hàng Tori Soba Mutahiro,unknown,restaurant,10.7793342,106.7054839
Quan 1,とり皮みつますホーチミン,japanese,restaurant,10.7793412,106.7053498
Quan 1,Gamagol,unknown,restaurant,10.779387,106.7046164
Quan 1,Unknown,spanish,restaurant,10.7676795,106.6971986
Quan 1,Unknown,unknown,restaurant,10.7705906,106.691794
Quan 1,すし亭,unknown,restaurant,10.7728586,106.6952438
Quan 1,The Log Restaurant,unknown,restaurant,10.7900066,106.7023183
Quan 1,The Log Restaurant,unknown,cafe,10.7898708,106.702575
Quan 1,Unknown,vietnamese,restaurant,10.7865342,106.6922877
Quan 1,Unknown,coffee_shop,cafe,10.7968734,106.7107967
Quan 1,Unknown,indian,restaurant,10.7852953,106.6996726
Quan 1,Phở Thìn By SOL - Q4,unknown,restaurant,10.7653742,106.7049428
Quan 1,Linh.kitchen,unknown,restaurant,10.7648051,106.7040088
Quan 1,The River Oriental,unknown,restaurant,10.7832461,106.7194822
Quan 1,Bếp Mẹ Ỉn,regional,restaurant,10.7739049,106.6981873
Quan 1,Lau Nam Chay,Vegetarian,restaurant,10.7924146,106.6945777
Quan 1,Bún thịt nướng cô Lan,vietnamese,restaurant,10.7915744,106.7099576
Quan 1,Amigo Grill - Farewell dinner,unknown,restaurant,10.7729783,106.7045114
Quan 1,Căn Tin 37,vietnamese,restaurant,10.7793435,106.7023879
Quan 1,Banh mi que,unknown,fast_food,10.7890002,106.7037161
Quan 1,Thong bún bò huê,unknown,cafe,10.7706992,106.6895953
Quan 1,Unknown,american,restaurant,10.7730101,106.6968042
Quan 1,Bánh Mì Bảy Hổ,unknown,restaurant,10.7903791,106.6966453
Quan 1,Hủ Tiếu Hồng Phát,unknown,restaurant,10.7705085,106.6848355
Quan 1,Chillta,unknown,cafe,10.7890748,106.7004193
Quan 1,Cô Ba,unknown,cafe,10.7618222,106.6994692
Quan 1,Shanti Veggie – Nhà Hàng Chay,chinese;vietnamese,restaurant,10.7699832,106.6867286
Quan 1,Ba Xa Ch,coffee_shop;regional;tea,restaurant,10.7785214,106.6986733
Quan 1,Bánh Mì Xanh – Trần Hưng Đạo,sandwich,fast_food,10.7696661,106.6966121
Quan 1,Unknown,unknown,restaurant,10.7903868,106.6987892
Quan 1,K COFFEE,unknown,cafe,10.7631749,106.6970733
Quan 1,Secret Garden,vietnamese,restaurant,10.7689156,106.6983666
Quan 1,CAFECUB,coffee_shop;bubble_tea;juice,cafe,10.7562392,106.7021606
Quan 1,Unknown,unknown,fast_food,10.7754512,106.69674
Quan 1,Sol Kitchen & Bar,unknown,restaurant,10.7740621,106.6970863
Quan 1,Bún Chả Hà Nội,unknown,cafe,10.7858351,106.6995019
Quan 1,Nhà hàng Hàn Quốc Choi Go Jip,asian;korean,restaurant,10.770807,106.6997189
Quan 1,139 Coffee & Tea,coffee_shop,cafe,10.7707988,106.7001322
Quan 1,Mang's Mania Vegan Restaurant,vietnamese,restaurant,10.7751819,106.7027648
Quan 1,Con soc Caffee,unknown,cafe,10.7881476,106.703977
Quan 1,Âm Thực Đà Nẵng,unknown,restaurant,10.7832681,106.6967587
Quan 1,Cosmic Cafe,unknown,cafe,10.7723124,106.722813
Quan 1,Starbucks,unknown,cafe,10.7722284,106.72251
Quan 1,Highlands Coffee,coffee_shop;vietnamese,cafe,10.7707859,106.7004642
Quan 1,Atlantis Restaurant,vietnamese;pizza;sandwich;asian,restaurant,10.7633263,106.6957869
Quan 1,Prem Bistro,international,restaurant,10.786495,106.6942548
Quan 1,McDonald's,burger,fast_food,10.7602428,106.6989302
Quan 1,Domino's,pizza,fast_food,10.7559749,106.7011588
Quan 1,Tan Lap,unknown,cafe,10.7718641,106.6955095
Quan 1,Cô Tuyêt,unknown,fast_food,10.775162,106.6826764
Quan 1,Jollibee,burger,fast_food,10.7815761,106.6948345
Quan 1,NOIRE Cafe & Bistro The Mett - Metropole,coffee_shop;bistro;breakfast;brunch;diner,cafe,10.7783755,106.7139718
Quan 1,Ẩm Thực Chay,vietnamese,restaurant,10.7801263,106.7037071
Quan 1,Agave - Mexican Bistro,unknown,restaurant,10.7693499,106.7030191
Quan 1,Sugar free black Sesame,unknown,cafe,10.768247,106.6987072
Quan 1,Hom Nay Cafe,unknown,cafe,10.7692839,106.7010267
Quan 1,Loop Coffee,unknown,cafe,10.7691711,106.7030796
Quan 1,Miến Phở Gà,unknown,cafe,10.7846923,106.6979902
Quan 1,Libra Coffee,unknown,cafe,10.7855319,106.6996473
Quan 1,Be An Vegetarian Cafe,vietnamese,restaurant,10.784408,106.6977612
Quan 1,Phương Thanh,unknown,restaurant,10.7645356,106.695117
Quan 1,Al Sham,unknown,restaurant,10.7618912,106.6961881
Quan 1,Restaurant Ngói,unknown,restaurant,10.7602379,106.6944889
Quan 1,Bagel Brothers,unknown,cafe,10.7698526,106.6963743
Quan 1,Highlands Coffee,coffee_shop;vietnamese,cafe,10.7687495,106.6952098
Quan 1,Unknown,italian;mexican;thai;vietnamese,restaurant,10.7681861,106.6944304
Quan 1,Cơm tấm Đề Thám / Giá He,vietnamese,restaurant,10.7684189,106.6932742
Quan 1,Tartine,unknown,restaurant,10.7726624,106.6956445
Quan 1,Cafe Văn Khoa,unknown,cafe,10.7859381,106.7028933
Quan 1,Kaffee Klatsch,unknown,cafe,10.7820009,106.7005579
Quan 1,Căn Tin Berlin,unknown,restaurant,10.7815505,106.7007624
Quan 1,Highlands Coffee,coffee_shop;vietnamese,cafe,10.782496,106.7009967
Quan 1,Kohi Coffee,unknown,cafe,10.7835099,106.7012037
Quan 1,Phuc Long,unknown,cafe,10.7842486,106.6997882
Quan 1,Yen Sushi and Sake Pub,japanese,restaurant,10.7835349,106.7010172
Quan 1,Gà Ta,vietnamese,restaurant,10.7828737,106.7020511
Quan 1,Đảo Space,unknown,cafe,10.7657623,106.6890133
Quan 1,Lim Veggie Bistro,vietnamese,restaurant,10.7811487,106.706086
Quan 1,Starbucks,coffee_shop,cafe,10.7769817,106.7102479
Quan 1,L'Entrecôte,unknown,restaurant,10.7753856,106.7041456
Quan 1,Okkio,coffee_shop,cafe,10.7760322,106.7033275
Quan 1,O Plant Based,vietnamese,restaurant,10.7713047,106.7029679
Quan 1,OKKIO Cafe,unknown,cafe,10.7725238,106.698948
Quan 1,Tự Do,coffee_shop,cafe,10.786125,106.7019219
Quan 1,Happy Place,taiwanese,restaurant,10.7633275,106.690358
Quan 1,Ippudo,ramen,restaurant,10.7801872,106.7044591
Quan 1,GIFUYA Japanese Izakaya Restaurant,japanese,restaurant,10.7798254,106.704975
Quan 1,AKUNA Restaurant,fine_dining,restaurant,10.7797574,106.7073433
Quan 1,Eggyolk Coffee,unknown,cafe,10.7725992,106.6966088
Quan 1,Soo Kafe Bến Thành,unknown,cafe,10.7725434,106.6971552
Quan 1,PHỞ SOL - Q1 (Phở & Các Món Ngon Từ Phở) Phở Thìn - By SOL,vietnamese,restaurant,10.7717143,106.7050647
Quan 1,Thanh Hoàng,vietnamese,restaurant,10.7807866,106.6891403
Quan 1,Thiện Quang 2,vietnamese,restaurant,10.7839727,106.7054068
Quan 1,Hikari,japanese,restaurant,10.7842586,106.7056833
Quan 1,Bà Xã,vietnamese,restaurant,10.7787238,106.688559
Quan 1,The Meeting Place,coffee_shop,cafe,10.7904871,106.7111196
Quan 1,Bột Chiên Thị Nghè,vietnamese,restaurant,10.7915073,106.7099994
Quan 1,Há Cảo 45,vietnamese;dumplings,restaurant,10.7936944,106.7094807
Quan 1,Hợp,coffee_shop,cafe,10.7962397,106.7071763
Quan 1,Cơm Sinh Viên,vietnamese,restaurant,10.7958447,106.7070856
Quan 1,Pizza & Bia,pizza,restaurant,10.784617,106.6942442
Quan 1,Bánh Flan,dessert,cafe,10.7957982,106.6957568
Quan 1,Ốc Zuka,vietnamese;seafood,restaurant,10.7973781,106.6936615
Quan 1,RedDoor,coffee_shop,cafe,10.7901671,106.6962894
Quan 1,Muteki,japanese,restaurant,10.7900879,106.7120262
Quan 1,Cơm Tấm Hao,vietnamese,restaurant,10.7965727,106.6924166
Quan 1,Liên Tỏa,vietnamese,restaurant,10.7850672,106.7004867
Quan 1,GenChay,vietnamese,restaurant,10.783204,106.695945
Quan 1,Mamoru,unknown,cafe,10.7922056,106.7016222
Quan 1,Tam Tam,vietnamese,restaurant,10.779669,106.68556
Quan 1,GBomb Cuisine,vietnamese;german;burger,restaurant,10.7888591,106.7152234
Quan 1,Hua Wu Lou,unknown,restaurant,10.7682637,106.6869868
Quan 1,Hello Saigon,vietnamese,restaurant,10.7685456,106.6938887
Quan 1,Little Bodhi Tree Saigon,unknown,restaurant,10.7683986,106.6939643
Quan 1,A Mà Kitchen Cong Quynh,unknown,restaurant,10.766959,106.6875044
Quan 1,Nhân Duyên,chinese;vietnamese,restaurant,10.7774006,106.6884244
Quan 1,The Coffee House,coffee_shop;vietnamese,cafe,10.758729,106.7005406
Quan 1,Bún Thịt Nướng Chả Giò,vietnamese,fast_food,10.7734647,106.6995844
Quan 1,Padme Chay,vietnamese;sushi;burger,restaurant,10.790554,106.6844072
Quan 1,Bon’s Vegan Bistro,vietnamese;international,restaurant,10.7703408,106.7020296
Quan 1,Pho Viet Nam,vietnamese,restaurant,10.7712561,106.69608
Quan 1,Đu Đủ Xanh,unknown,restaurant,10.7861999,106.6945848
Quan 1,Krishna,indian,restaurant,10.76849,106.696619
Quan 1,Sen,vietnamese,restaurant,10.768323,106.6950316
Quan 1,Rốp,vietnamese;western;international,restaurant,10.783657,106.6879435
Quan 1,Beo Oi! - Mon Ngon Ha Noi,unknown,restaurant,10.7852678,106.7011105
Quan 1,Nấm,vietnamese;international,restaurant,10.788854,106.6916879
Quan 1,Lẩu Naro,hotpot;vietnamese,restaurant,10.790461,106.6843176
Quan 1,Om,international;vietnamese;western,restaurant,10.7890844,106.690899
Quan 1,Phở Thịnh,unknown,restaurant,10.7711103,106.6875105
Quan 1,Nôm,vietnamese,restaurant,10.7796244,106.682023
Quan 1,Ren Coffee and Tea,unknown,cafe,10.7723516,106.694261
Quan 1,Tâm Vị,vietnamese;international;asian,restaurant,10.7820898,106.6880257
Quan 1,Quán Chay 103,vietnamese,restaurant,10.7689793,106.6994925
Quan 1,Unknown,vietnamese,restaurant,10.7874045,106.6975936
Quan 1,Sukiya,japanese,restaurant,10.7797798,106.704174
Quan 1,Filthy Vegan,english,restaurant,10.7648395,106.6949177
Quan 1,Kom,unknown,cafe,10.7912165,106.7021558
Quan 1,Vua cafe sach,coffee_shop,cafe,10.79204,106.7042806
Quan 1,Everything 25k,unknown,cafe,10.7947277,106.7057131
Quan 1,Như Ý Chay,unknown,restaurant,10.786431,106.6921868
Quan 1,Be An Bistro,vietnamese;international,restaurant,10.7733669,106.7038328
Quan 1,SoHa Nhà Chay,vietnamese,restaurant,10.7924268,106.6895766
Quan 1,Fingerprint Chay,regional,restaurant,10.7914564,106.7049406
Quan 1,Chay Bodhi,vietnamese,restaurant,10.7840034,106.682138
Quan 1,Ẩm Thực Chay Tuệ,vietnamese;international,restaurant,10.7920064,106.698333
Quan 1,Trần Pizza,pizza,restaurant,10.7654521,106.6883293
Quan 1,Phạm Nghiêm Trai,sushi;japanese;international,restaurant,10.766393,106.6881849
Quan 1,Star Anise Saigon,vietnamese,restaurant,10.7700574,106.7005236
Quan 1,Huệ Quang Chay,vietnamese,restaurant,10.790072,106.6840122
Quan 1,The Donut Club,donut,fast_food,10.7862541,106.6920314
Quan 1,Quan Bui,vietnamese,restaurant,10.7808839,106.7063054
Quan 1,Madison,unknown,cafe,10.7783293,106.7042766
Quan 1,Tâm Hiếu,vietnamese,restaurant,10.7728961,106.6832363
Quan 1,Ресторан вьетнамской кухни,vietnamese,restaurant,10.7724432,106.6966602
Quan 1,Quán Bụi,vietnamese;regional,restaurant,10.7725831,106.6965385
Quan 1,Bánh Canh Ghẹ Hẻm Mát,vietnamese,restaurant,10.7697455,106.6916041
Quan 1,蕎麦処　美桜,japanese,restaurant,10.7891497,106.7087594
Quan 1,Sa Đéc Quán,vietnamese,restaurant,10.7916305,106.6861746
Quan 1,Xôi Khúc Bắc Cô Thủy,vietnamese,restaurant,10.7986215,106.6956914
Quan 1,Banh Mi Grandma Lu's,vietnamese,restaurant,10.7800565,106.7038072
Quan 1,Tanishq Indian Vegetarian,indian,restaurant,10.7719036,106.6939806
Quan 1,Tiệm Chay Mộc Lâm Duyên,vietnamese;cantonese;chinese,restaurant,10.7653387,106.6856668
Quan 1,Santorini Coffee & Veggies,international,restaurant,10.7886024,106.7089484
Quan 1,Tomato Kitchen,pasta;pizza;italian,restaurant,10.7901419,106.6840807
Quan 1,Cơm Niêu Đẩu,vietnamese,restaurant,10.7900505,106.6842198
Quan 1,Phuc Long,coffee_shop,cafe,10.7726904,106.70465
Quan 1,Tam Caphe,unknown,cafe,10.7785281,106.7029446
Quan 1,Bánh Cuốn Nóng Hào Hoa,vietnamese,restaurant,10.7730605,106.6963254
Quan 1,Eddie's New York Deli & Diner,western;american,restaurant,10.7751007,106.7006098
Quan 1,Jimmy's Pizza,unknown,restaurant,10.7690948,106.6970218
Quan 1,Katinat - Nguyễn Bỉnh Khiêm 2,unknown,cafe,10.7922217,106.6997901
Quan 1,Unknown,unknown,cafe,10.7837689,106.694919
Quan 1,Unknown,unknown,cafe,10.788042,106.6997551
Quan 1,Thiên Khôi,unknown,cafe,10.7813354,106.6857358
Quan 1,The Settlers,unknown,cafe,10.7923621,106.6889479
Quan 1,Tartine,international;western,restaurant,10.788584,106.6998954
Quan 1,Morico,japanese,restaurant,10.7743273,106.700606
Quan 1,Nhà Hàng Chay Hoa Ưu Đàm,vietnamese,restaurant,10.7601734,106.6861777
Quan 1,Araham,vietnamese;malaysian,restaurant,10.7733831,106.6890213
Quan 1,Kafka Café,unknown,cafe,10.7864999,106.6942586
Quan 1,Pi Bistro,international;western,restaurant,10.7864857,106.6942466
Quan 1,Po Café,coffee_shop;tea,cafe,10.7741964,106.7042408
Quan 1,Curry-licious,indian,restaurant,10.776982,106.7038982
Quan 1,MAD ROOSTA,burger,fast_food,10.7772663,106.7042149
Quan 1,Bami Cô Xíu,vietnamese,fast_food,10.7628719,106.6924217
Quan 1,Nhà Tú,vietnamese,restaurant,10.7751942,106.6895763
Quan 1,Buffet Lẩu Rau Nấm Vua Rau,vietnamese;hotpot,restaurant,10.7900547,106.6841959
Quan 1,Nhà Hàng Chay Mọc Nhiên,vietnamese,restaurant,10.7868811,106.6819034
Quan 1,Roots Plant-based Cafe,western,restaurant,10.7740117,106.6973898
Quan 1,Nhà Hàng Thuần Chay Nhất Tâm,vietnamese,restaurant,10.7602288,106.7018137
Quan 1,Bánh Cuốn Tây Hồ 127,vietnamese,restaurant,10.7907465,106.696988
Quan 1,Xích Lô,unknown,restaurant,10.7666487,106.6944624
Quan 1,Fein Kafe,unknown,cafe,10.7586282,106.7000053
Quan 1,Tonkin Speciality Coffee,unknown,cafe,10.7744878,106.6978081
Quan 1,Hoa Tây Nguyên,unknown,cafe,10.7911503,106.7017976
Quan 1,Thúy Hiền,unknown,restaurant,10.7876478,106.6965101
Quan 1,CELA Nhà Hàng Chay,japanese,restaurant,10.7890424,106.6970289
Quan 1,Trulli Café,unknown,cafe,10.7843043,106.6942729
Quan 1,Café Linh,unknown,cafe,10.784355,106.6942271
Quan 1,21 Grams Chay,vietnamese;asian,restaurant,10.7740948,106.7042586
Quan 1,Tuệ Marina Chay,vietnamese;asian;international,restaurant,10.7815956,106.7080781
Quan 1,Metta Chay,vietnamese,restaurant,10.782228,106.6881372
Quan 1,Sova Café Ho Chi Minh,coffee_shop,cafe,10.7722561,106.7027258
Quan 1,Cục Gạch Chay,vietnamese,restaurant,10.7907933,106.6918273
Quan 1,Thiền Trúc,vietnamese,restaurant,10.793772,106.6901861
Quan 1,Quán An Chay,vietnamese,restaurant,10.7959189,106.6924219
Quan 1,Nhà Hàng Chay San May,vietnamese,restaurant,10.789009,106.6982345
Quan 1,Buffet Chay D'Gemma,vietnamese;buffet,restaurant,10.7760788,106.6807932
Quan 1,Nhà Hàng Chay Diệu Hạnh,vietnamese,restaurant,10.778921,106.7136439
Quan 1,Nhà Hàng Chay Vĩnh Nghiêm,vietnamese,restaurant,10.79042,106.6826279
Quan 1,Vườn Chay Giác Duyên,vietnamese;hotpot,restaurant,10.7926915,106.6911673
Quan 1,Soha Nhà Chay,vietnamese,restaurant,10.7721912,106.6962704
Quan 1,Quan Tea,vietnamese;japanese;international;teahouse,restaurant,10.7673324,106.7124566
Quan 1,Pizza Belga - Phan Ke Binh,italian;pizza,restaurant,10.789697,106.6994356
Quan 1,Y coffee roastery,coffee_shop,cafe,10.7696283,106.6836999
Quan 1,The Bí Mành - Bánh Mì Heo Quay - Trần Nguyên Đán,sandwich;vietnamese,fast_food,10.7926055,106.6936197
Quan 1,anh cafe,unknown,cafe,10.7926051,106.6936866
Quan 1,96B cafe & roastery,unknown,cafe,10.7900936,106.6967422
Quan 1,SẠC,unknown,restaurant,10.7689879,106.6959074
Quan 1,Quán Chay Thanh Lạc,vietnamese,restaurant,10.7633733,106.7076661
Quan 1,iVegan Supershop,international,restaurant,10.7716659,106.6951726
Quan 1,Nhà Mấy Dì,vietnamese,restaurant,10.7955025,106.7100983
Quan 1,Quán Chay Lam,vietnamese,restaurant,10.7699115,106.6815759
Quan 1,The Joi Factory,vietnamese,restaurant,10.765341,106.6865537
Quan 1,Tiệm Chay Heye,taiwanese;chinese;vietnamese,restaurant,10.769371,106.6827934
Quan 1,Highlands Coffee,coffee_shop;vietnamese,cafe,10.7965591,106.6908919
Quan 1,Bề Bề Nội - Hương Vị Hà Nội Xưa,vietnamese;63/5_pasteur;breakfast;lunch;noodle;crab;mantis_shrimp;bún_riêu;bề_bề;tôm_tít;tôm_tích;hà_nội_xưa;hanoi;hanoi_old_quarter;local_food;traditional_food,restaurant,10.7748387,106.7003476
Quan 1,YoshiYoshi Coffee & Tea,tea;coffee_shop,cafe,10.767876,106.6993584
Quan 1,Unknown,unknown,restaurant,10.7731871,106.6978445
Quan 1,Tung's,regional;vietnamese,restaurant,10.7724964,106.6965364
Quan 1,Thanh Thiên,regional,fast_food,10.7690846,106.694509
Quan 1,Burger King,burger,fast_food,10.7683548,106.6926343
Quan 1,Cô Liêng,regional,restaurant,10.771616,106.6858145
Quan 1,Day By Day,unknown,restaurant,10.7691858,106.6933369
Quan 1,Nhà Hàng Chay Sesame,vietnamese,restaurant,10.7732977,106.7019193
Quan 1,Gateway of India,indian,restaurant,10.7718658,106.6928274
Quan 1,Starbucks,coffee_shop,cafe,10.7779247,106.6898048
Quan 1,SOBO Coffee & Matcha,coffee_shop,cafe,10.7727902,106.6934539
Quan 1,Quán Ăn Huế Bà Bảy,vietnamese,restaurant,10.7816408,106.6947895
Quan 1,Bánh Mì Chay XANH,unknown,restaurant,10.7714741,106.69207
Quan 1,Nhà Hàng Hoang,vietnamese,restaurant,10.7742806,106.6967475
Quan 1,Thực Đơn Chay 380,vietnamese,restaurant,10.7910486,106.683653
Quan 1,Gòn Cà phê,unknown,cafe,10.7907005,106.6877243
Quan 1,Bếp Chay Phạm Hồng Phước,vietnamese,restaurant,10.77539,106.6853823
Quan 1,Guta Nguyễn Văn Thủ,vietnamese,cafe,10.7879292,106.6970183
Quan 1,Belgo Nguyễn Văn Thủ - Belgian Craft Beer & Restaurant,unknown,restaurant,10.7887704,106.697965
Quan 1,Tacoleo,unknown,restaurant,10.7660499,106.693945
Quan 1,Chay Lười Giàu Đam,vietnamese;international,restaurant,10.79102,106.6870059
Quan 1,Bahn Mi 611,unknown,restaurant,10.7667125,106.6904605
Quan 1,Ốc Singapore - Hải Sản Bình Dân,seafood;vietnamese,restaurant,10.7622276,106.6939335
Quan 1,Tu Li Ku Su,unknown,restaurant,10.7651524,106.6914875
Quan 1,TL Juice,unknown,cafe,10.7953034,106.70701
Quan 1,1996 Space & Coffee,unknown,cafe,10.7667283,106.6999267
Quan 1,Chay Garden,vietnamese,restaurant,10.7849714,106.6998924
Quan 1,Nhà Hàng Chay Soha,vietnamese,restaurant,10.7667351,106.6940144
Quan 1,Passio Coffee,unknown,cafe,10.7933901,106.7024995
Quan 1,Nâunâu,thai,restaurant,10.7667991,106.6907291
Quan 1,Gia Hùng,unknown,restaurant,10.7941947,106.7039132
Quan 1,Kim Ngân,coffee_shop,cafe,10.7942677,106.7039474
Quan 1,Bún Bò Huế Quyên,unknown,restaurant,10.795497,106.7070618
Quan 1,The Crab Shack Central,unknown,restaurant,10.7664912,106.6986439
Quan 1,Tay Son Coffee,unknown,cafe,10.7841335,106.6879924
Quan 1,Milano,unknown,cafe,10.7931417,106.7035592
Quan 1,Bò Né,unknown,restaurant,10.7933441,106.7029022
Quan 1,MÌ Ý A.HOÀI - Do Chính A.HOÀI Đảm Trách,italian;italian_pizza,restaurant,10.7607761,106.690652
Quan 1,Quán ăn 257,vietnamese,restaurant,10.759643,106.6932764
Quan 1,Be U Coffee,unknown,cafe,10.7962496,106.7037298
Quan 1,Phở,unknown,restaurant,10.7941894,106.7016856
Quan 1,Phở,unknown,restaurant,10.7940833,106.7016077
Quan 1,The Alley Cat,unknown,restaurant,10.7677912,106.6926312
Quan 1,Phượng Hoàng,vietnamese,restaurant,10.7670725,106.6940993
Quan 1,Cơm Gà,unknown,restaurant,10.7941085,106.7042788
Quan 1,Phở Bình,vietnamese,restaurant,10.790891,106.6870771
Quan 1,VTT Coffee,unknown,cafe,10.7933077,106.7034861
Quan 1,Hồng My Coffee,unknown,cafe,10.7929111,106.704475
Quan 1,Cà phê số 4,unknown,cafe,10.7907193,106.6943965
Quan 1,Nhà Hàng Chay Làng Ta,vietnamese,restaurant,10.7827784,106.6839637
Quan 1,Lẩu Rau Nấm Chay Mê Rau,hotpot;vietnamese,restaurant,10.7688755,106.6847304
Quan 1,Kimbong Toast & Drink,unknown,restaurant,10.775463,106.6872055
Quan 1,Creamy,unknown,cafe,10.793759,106.687577
Quan 1,Gờ Café,unknown,cafe,10.7932526,106.6875119
Quan 1,Flow - Roaster Coffee,unknown,cafe,10.7937873,106.6877299
Quan 1,Guta,unknown,cafe,10.7930369,106.6896897
Quan 1,Unknown,unknown,cafe,10.7937695,106.6870159
Quan 1,Phuc Long,unknown,cafe,10.7845771,106.6995595
Quan 1,Nhà Hàng Chay Tâm,vietnamese;asian,restaurant,10.7635604,106.6886168
Quan 1,Gờ Coffee,unknown,cafe,10.7902461,106.6926655
Quan 1,Tiệm Lẩu Trứ Danh,unknown,restaurant,10.7625249,106.6881969
Quan 1,Hủ tiếu nam vang Thành Đạt,unknown,restaurant,10.7891169,106.6987866
Quan 1,Bánh mì,unknown,fast_food,10.7863772,106.7017244
Quan 1,Beer garden - Taste of India,unknown,restaurant,10.791194,106.6950547
Quan 1,Cơm tấm chị hồng Calmette,unknown,restaurant,10.7634316,106.7036329
Quan 1,Quán Ốc,unknown,restaurant,10.758923,106.7067455
Quan 1,Quán Nga - Bún thịt nướng,unknown,restaurant,10.7917587,106.6909826
Quan 1,Cà phơ hơm,unknown,cafe,10.7929054,106.7069827
Quan 1,Highlands,unknown,cafe,10.7884848,106.6997872
Quan 1,Bingsuya,unknown,cafe,10.7885537,106.6998441
Quan 1,Bamos,unknown,cafe,10.7930451,106.7116379
Quan 1,Hanuri,unknown,restaurant,10.7944111,106.7087883
Quan 1,Là Việt Coffee,coffee_shop,cafe,10.7776691,106.6836597
Quan 1,Chay Diệu My,vietnamese,restaurant,10.7638908,106.6954529
Quan 1,3Đ Chill Cafe,unknown,cafe,10.7853495,106.6838354
Quan 1,Hung Map,unknown,restaurant,10.7661348,106.6879562
Quan 1,Oc Dao,seafood,restaurant,10.7652142,106.6846551
Quan 1,Jayu,unknown,cafe,10.7830488,106.6810891
Quan 1,Phở Anh,unknown,restaurant,10.7844647,106.6828713
Quan 1,Cafe Latino,unknown,restaurant,10.7814124,106.6908524
Quan 1,Bún thịt nướng Cô Nga,unknown,restaurant,10.7608349,106.706738
Quan 1,Like Cofee - Banh Mi,unknown,fast_food,10.7688614,106.6940175
Quan 1,McDonald's,burger,fast_food,10.7699361,106.6967625
Quan 1,Quán Chay 59,vietnamese,restaurant,10.7917746,106.7099884
Quan 1,AVA coffee,unknown,cafe,10.7711042,106.6903624
Quan 1,Lil's,unknown,cafe,10.7928675,106.6912047
Quan 1,Gắp gắp,unknown,restaurant,10.7864428,106.6894773
